{"config": {"view": {"continuousWidth": 300, "continuousHeight": 300}}, "layer": [{"data": {"url": "https://cdn.jsdelivr.net/npm/world-atlas@2/countries-110m.json", "format": {"feature": "countries", "type": "topojson"}}, "mark": {"type": "geoshape", "fill": "#F9F9FB", "stroke": "#E5E7EB"}, "projection": {"type": "equalEarth"}}, {"data": {"name": "data-b8bff16c11cfe7b50f0f9e847683d124"}, "mark": {"type": "circle", "opacity": 0.4}, "encoding": {"color": {"field": "shape", "title": "Shape", "type": "nominal"}, "latitude": {"field": "latitude", "type": "quantitative"}, "longitude": {"field": "longitude", "type": "quantitative"}, "size": {"field": "duration_in_seconds", "legend": null, "scale": {"range": [10, 400]}, "title": "Duration (seconds)", "type": "quantitative"}, "tooltip": [{"field": "datetime", "title": "Date", "type": "temporal"}, {"field": "city", "title": "City", "type": "nominal"}, {"field": "state", "title": "State", "type": "nominal"}, {"field": "country", "title": "Country", "type": "nominal"}, {"field": "shape", "title": "Shape", "type": "nominal"}]}, "name": "view_1", "transform": [{"filter": {"param": "param_1"}}]}], "height": 400, "params": [{"name": "param_1", "select": {"type": "point", "fields": ["year"]}, "bind": {"input": "range", "max": 2014, "min": 1940, "name": "Year: ", "step": 1}, "value": {"year": 2000}, "views": ["view_1"]}], "title": "UFO Sightings by Year", "width": 700, "$schema": "https://vega.github.io/schema/vega-lite/v5.20.1.json", "datasets": {"data-b8bff16c11cfe7b50f0f9e847683d124": [{"datetime": "2003-06-14T21:00:00", "city": "wilmington", "state": "nc", "country": "us", "shape": "Light", "duration_in_seconds": 60.0, "duration_in_hours_min": "1 minute", "comments": "Two bright lights came into view as we were sitting on our back porch. They appeared to be fairly far away - like bright stars. No soun", "dateposted": "5/24/2005", "latitude": 34.2255556, "longitude": -77.945, "year": 2003, "month": 6, "weekday": "Saturday", "hour": 21}, {"datetime": "2013-08-17T22:15:00", "city": "st. clair", "state": "mi", "country": null, "shape": "Unknown", "duration_in_seconds": 120.0, "duration_in_hours_min": "2 minutes", "comments": "Two unusual Orange colored lights.", "dateposted": "10/14/2013", "latitude": 42.820865, "longitude": -82.486024, "year": 2013, "month": 8, "weekday": "Saturday", "hour": 22}, {"datetime": "2010-09-18T14:42:00", "city": "rochester", "state": "ny", "country": "us", "shape": "Egg", "duration_in_seconds": 120.0, "duration_in_hours_min": "2min", "comments": "Semi-egg shaped object floating above local highway 20-25 feet in the air.", "dateposted": "11/21/2010", "latitude": 43.1547222, "longitude": -77.6158333, "year": 2010, "month": 9, "weekday": "Saturday", "hour": 14}, {"datetime": "1974-02-14T21:00:00", "city": "woodlawn", "state": "va", "country": "us", "shape": "Fireball", "duration_in_seconds": 10.0, "duration_in_hours_min": "10 seconds", "comments": "Meteor or Otherwise? Blue Fireball Impacted SouthWestern Virginia Valentines Day 1974", "dateposted": "6/9/2009", "latitude": 36.7222222, "longitude": -80.8230556, "year": 1974, "month": 2, "weekday": "Thursday", "hour": 21}, {"datetime": "2005-01-13T04:13:00", "city": "milwaukee", "state": "wi", "country": "us", "shape": "Formation", "duration_in_seconds": 20.0, "duration_in_hours_min": "20 seconds", "comments": "a blue light that hovered for a few seconds and quickly disappeared", "dateposted": "1/19/2005", "latitude": 43.0388889, "longitude": -87.9063889, "year": 2005, "month": 1, "weekday": "Thursday", "hour": 4}, {"datetime": "2001-01-11T21:40:00", "city": "rockford", "state": "il", "country": "us", "shape": "Light", "duration_in_seconds": 900.0, "duration_in_hours_min": "15 mins", "comments": "same as above", "dateposted": "2/18/2001", "latitude": 42.2711111, "longitude": -89.0938889, "year": 2001, "month": 1, "weekday": "Thursday", "hour": 21}, {"datetime": "1972-11-20T21:00:00", "city": "lebanon", "state": "tn", "country": "us", "shape": "Oval", "duration_in_seconds": 3600.0, "duration_in_hours_min": "1 hour", "comments": "11/20/1972  2100&#44  Tenn Lebanon  oval    30 minutes  usa space craft over friends  house  01/25/09", "dateposted": "3/19/2009", "latitude": 36.2080556, "longitude": -86.2911111, "year": 1972, "month": 11, "weekday": "Monday", "hour": 21}, {"datetime": "2011-02-16T00:30:00", "city": "benwood", "state": "wv", "country": "us", "shape": "Cigar", "duration_in_seconds": 120.0, "duration_in_hours_min": "minute or less", "comments": "Bright&#44 large white light &amp; also green light.", "dateposted": "2/18/2011", "latitude": 40.0180556, "longitude": -80.7344444, "year": 2011, "month": 2, "weekday": "Wednesday", "hour": 0}, {"datetime": "2007-07-14T20:45:00", "city": "white bird", "state": "id", "country": "us", "shape": "Oval", "duration_in_seconds": 2.0, "duration_in_hours_min": "2 sec", "comments": "Bright fast moving object very low in the skymoving west to east.", "dateposted": "8/7/2007", "latitude": 45.7616667, "longitude": -116.2997222, "year": 2007, "month": 7, "weekday": "Saturday", "hour": 20}, {"datetime": "2012-03-31T00:54:00", "city": "bernardston", "state": "ma", "country": "us", "shape": "Other", "duration_in_seconds": 7.0, "duration_in_hours_min": "about 7 seconds", "comments": "Saw a green UFO really close to my car&#44 lowered in valley; resulted in panicked coyote hit on I-91.", "dateposted": "5/13/2012", "latitude": 42.6708333, "longitude": -72.55, "year": 2012, "month": 3, "weekday": "Saturday", "hour": 0}, {"datetime": "2011-08-23T10:05:00", "city": "moon township", "state": "pa", "country": null, "shape": "Cylinder", "duration_in_seconds": 180.0, "duration_in_hours_min": "3 min", "comments": "silver cylinder craft that became two&#44 flying in opposite directions.", "dateposted": "10/10/2011", "latitude": 40.516977, "longitude": -80.221348, "year": 2011, "month": 8, "weekday": "Tuesday", "hour": 10}, {"datetime": "2011-09-14T23:00:00", "city": "boulder", "state": "co", "country": "us", "shape": "Chevron", "duration_in_seconds": 4.0, "duration_in_hours_min": "4 seconds", "comments": "Pink and blue pulsating manta ray shaped ufo over boulder", "dateposted": "12/12/2011", "latitude": 40.015, "longitude": -105.27, "year": 2011, "month": 9, "weekday": "Wednesday", "hour": 23}, {"datetime": "2003-05-01T19:00:00", "city": "wakefield (uk/england)", "state": null, "country": "gb", "shape": "Triangle", "duration_in_seconds": 180.0, "duration_in_hours_min": "3 minutes?", "comments": "me and my cousen were walking home from a fishshop when we stopped to look at what we assumed to b some srt of shooting star. seconds l", "dateposted": "5/11/2005", "latitude": 53.7, "longitude": -1.483333, "year": 2003, "month": 5, "weekday": "Thursday", "hour": 19}, {"datetime": "2011-04-29T20:30:00", "city": "emporia", "state": "ks", "country": "us", "shape": "Unknown", "duration_in_seconds": 2.0, "duration_in_hours_min": "2 seconds", "comments": "UFO moving east to west over Emporia&#44 KS", "dateposted": "5/2/2011", "latitude": 38.4038889, "longitude": -96.1813889, "year": 2011, "month": 4, "weekday": "Friday", "hour": 20}, {"datetime": "2013-07-18T22:32:00", "city": "platteville", "state": "wi", "country": "us", "shape": "Unknown", "duration_in_seconds": 300.0, "duration_in_hours_min": "5 minutes", "comments": "Fading light moving along the sky over Grant County&#44 Wisconsin.", "dateposted": "7/22/2013", "latitude": 42.7341667, "longitude": -90.4783333, "year": 2013, "month": 7, "weekday": "Thursday", "hour": 22}, {"datetime": "2005-01-25T21:50:00", "city": "anchorage", "state": "ak", "country": "us", "shape": "Light", "duration_in_seconds": 780.0, "duration_in_hours_min": "13 minutes", "comments": "Bright Orange light moving slowly across the sky", "dateposted": "1/27/2005", "latitude": 61.2180556, "longitude": -149.9002778, "year": 2005, "month": 1, "weekday": "Tuesday", "hour": 21}, {"datetime": "2009-09-10T18:00:00", "city": "mesa (nne of)", "state": "az", "country": "us", "shape": "Disk", "duration_in_seconds": 480.0, "duration_in_hours_min": "4-8 minutes", "comments": "Self-luminous&#44 flourescent-glowing &#44 disc-oid object appears stationary in central Arizona skies", "dateposted": "12/12/2009", "latitude": 33.4222222, "longitude": -111.8219444, "year": 2009, "month": 9, "weekday": "Thursday", "hour": 18}, {"datetime": "2012-02-07T07:00:00", "city": "las vegas", "state": "nv", "country": "us", "shape": "Circle", "duration_in_seconds": 10.0, "duration_in_hours_min": "10 sec.", "comments": "Bright&#44 red&#44 glowing&#44 slow moving&#44 craft headed west disappeared behind buildings.", "dateposted": "3/13/2012", "latitude": 36.175, "longitude": -115.1363889, "year": 2012, "month": 2, "weekday": "Tuesday", "hour": 7}, {"datetime": "2007-02-11T18:00:00", "city": "suffolk/cambridgeshire/essex/london (uk/england)", "state": null, "country": null, "shape": "Light", "duration_in_seconds": 1200.0, "duration_in_hours_min": "hour +", "comments": "Strange lights and a ring of unexplained fire.  ((NUFORC Note:  Possible sighting of Venus in the southwest sky??  PD))", "dateposted": "3/8/2007", "latitude": 51.765908, "longitude": 0.667367, "year": 2007, "month": 2, "weekday": "Sunday", "hour": 18}, {"datetime": "1997-12-18T22:50:00", "city": "oxnard", "state": "ca", "country": "us", "shape": "Cigar", "duration_in_seconds": 30.0, "duration_in_hours_min": "20-30 seconds", "comments": "Huge cigar shaped craft followed our power lines&#44 continuing west out to sea.", "dateposted": "8/30/1999", "latitude": 34.1975, "longitude": -119.1761111, "year": 1997, "month": 12, "weekday": "Thursday", "hour": 22}, {"datetime": "1968-06-12T12:30:00", "city": "shrewsbury", "state": "ma", "country": "us", "shape": "Rectangle", "duration_in_seconds": 120.0, "duration_in_hours_min": "2min", "comments": "((HOAX??))  CRAFT WAS SQUARE LIKE A WINNABAGO BLACK NO NOISE DIDNT MOVE FOR OVER 2MIN WAS CLOSE LESS THAN QUARTER OF A MILE", "dateposted": "8/7/2007", "latitude": 42.2958333, "longitude": -71.7133333, "year": 1968, "month": 6, "weekday": "Wednesday", "hour": 12}, {"datetime": "1995-08-14T10:30:00", "city": "snoqualmie pass", "state": "wa", "country": "us", "shape": "Unknown", "duration_in_seconds": 10.0, "duration_in_hours_min": "10 sec.", "comments": "Computer engineer driving on Rte. I-90 witnesses unusual silver&#44 metallic descending rapidly in distance. (Possible A-6E aircraft?)", "dateposted": "11/2/1999", "latitude": 47.3925, "longitude": -121.3988889, "year": 1995, "month": 8, "weekday": "Monday", "hour": 10}, {"datetime": "2002-07-06T23:00:00", "city": "pittsburgh", "state": "pa", "country": "us", "shape": "Rectangle", "duration_in_seconds": 600.0, "duration_in_hours_min": "00:10:00", "comments": "I noticed a light flashing in the night sky just over the little dipper.  At first glance it seemed like an airplane but the more I loo", "dateposted": "7/26/2002", "latitude": 40.4405556, "longitude": -79.9961111, "year": 2002, "month": 7, "weekday": "Saturday", "hour": 23}, {"datetime": "2007-06-18T14:00:00", "city": "woodland", "state": "ca", "country": "us", "shape": "Cigar", "duration_in_seconds": 60.0, "duration_in_hours_min": "1 minute", "comments": "Cigar shaped object flying through sky then suddenly vanished.", "dateposted": "8/7/2007", "latitude": 38.6786111, "longitude": -121.7722222, "year": 2007, "month": 6, "weekday": "Monday", "hour": 14}, {"datetime": "2006-08-01T21:30:00", "city": "new holland", "state": "oh", "country": "us", "shape": "Other", "duration_in_seconds": 30.0, "duration_in_hours_min": "30 seconds", "comments": "kinda scared me.", "dateposted": "10/30/2006", "latitude": 39.5538889, "longitude": -83.2569444, "year": 2006, "month": 8, "weekday": "Tuesday", "hour": 21}, {"datetime": "2000-10-21T13:30:00", "city": "west manchester", "state": "oh", "country": "us", "shape": "Cylinder", "duration_in_seconds": 5.0, "duration_in_hours_min": "5 seconds", "comments": "While watching jets passing overhead leaving trails in every direction in the sky&#44 we observed an object completely disappear from the", "dateposted": "12/2/2000", "latitude": 38.6880556, "longitude": -83.6094444, "year": 2000, "month": 10, "weekday": "Saturday", "hour": 13}, {"datetime": "2009-11-02T20:30:00", "city": "coos bay", "state": "or", "country": "us", "shape": "Circle", "duration_in_seconds": 45.0, "duration_in_hours_min": "30-45 seconds", "comments": "Glowing green light near street intersection spotted&#44 then shoots straight up.", "dateposted": "4/13/2010", "latitude": 43.3666667, "longitude": -124.2166667, "year": 2009, "month": 11, "weekday": "Monday", "hour": 20}, {"datetime": "2000-10-15T01:00:00", "city": "los americas (laguna park 1 hotel) (tenerife)", "state": null, "country": null, "shape": "Circle", "duration_in_seconds": 45.0, "duration_in_hours_min": "45 seconds", "comments": "the UFO traveled horizontaly above us&#44for approx 45 seconds before shooting upwards into the sky and dissapearing.", "dateposted": "12/9/2003", "latitude": 4.52572, "longitude": -75.6976, "year": 2000, "month": 10, "weekday": "Sunday", "hour": 1}, {"datetime": "2012-12-30T16:50:00", "city": "south berwick", "state": "me", "country": "us", "shape": "Teardrop", "duration_in_seconds": 300.0, "duration_in_hours_min": "5 minutes", "comments": "Two orange objects flying over Dow Highway in So Berwick&#44 ME", "dateposted": "2/4/2013", "latitude": 43.2344444, "longitude": -70.81, "year": 2012, "month": 12, "weekday": "Sunday", "hour": 16}, {"datetime": "2006-07-12T05:00:00", "city": "silver city", "state": "nm", "country": "us", "shape": "Changing", "duration_in_seconds": 5400.0, "duration_in_hours_min": "1.5 hours", "comments": "Unusual cloudlike formation with extending tendrils seen over Silver City&#44 New Mexico", "dateposted": "10/30/2006", "latitude": 32.77, "longitude": -108.2797222, "year": 2006, "month": 7, "weekday": "Wednesday", "hour": 5}, {"datetime": "2011-07-09T22:00:00", "city": "milwaukee", "state": "wi", "country": "us", "shape": "Formation", "duration_in_seconds": 120.0, "duration_in_hours_min": "2 mins", "comments": "Location: USA Milwaukee WI Lakeshore Park Event: Milwaukee World Music Festival Also Known As Summer fest.Time: July 9 between 2200", "dateposted": "7/17/2011", "latitude": 43.0388889, "longitude": -87.9063889, "year": 2011, "month": 7, "weekday": "Saturday", "hour": 22}, {"datetime": "1995-07-21T23:15:00", "city": "philadelphia", "state": "pa", "country": "us", "shape": "Light", "duration_in_seconds": 180.0, "duration_in_hours_min": "2-3 min.", "comments": "Bright Light over I95 (Philly) which shot off at an incredible speed and angle.", "dateposted": "6/18/2004", "latitude": 39.9522222, "longitude": -75.1641667, "year": 1995, "month": 7, "weekday": "Friday", "hour": 23}, {"datetime": "2005-09-07T01:56:00", "city": "los angeles", "state": "ca", "country": "us", "shape": "Light", "duration_in_seconds": 120.0, "duration_in_hours_min": "2 minutes", "comments": "Orange light climbs 3 minutes straight up into night sky over Los Angeles", "dateposted": "10/11/2005", "latitude": 34.0522222, "longitude": -118.2427778, "year": 2005, "month": 9, "weekday": "Wednesday", "hour": 1}, {"datetime": "2013-12-06T16:15:00", "city": "laveen", "state": "az", "country": "us", "shape": "Fireball", "duration_in_seconds": 978.0, "duration_in_hours_min": "16:18", "comments": "Fire Orb By North Star In Phoenix", "dateposted": "12/12/2013", "latitude": 33.3627778, "longitude": -112.1686111, "year": 2013, "month": 12, "weekday": "Friday", "hour": 16}, {"datetime": "2006-07-30T03:30:00", "city": "hyannis", "state": "ma", "country": "us", "shape": "Oval", "duration_in_seconds": 1.0, "duration_in_hours_min": "1 second", "comments": "Glowing orange craft zips away like a shooting star in hyannis&#44 ma at around 3:30am 7/30/06", "dateposted": "10/30/2006", "latitude": 41.6527778, "longitude": -70.2833333, "year": 2006, "month": 7, "weekday": "Sunday", "hour": 3}, {"datetime": "2012-03-22T22:00:00", "city": "spokane", "state": "wa", "country": "us", "shape": "Egg", "duration_in_seconds": 1200.0, "duration_in_hours_min": "20 minutes", "comments": "Bright glowing white orb&#44 morphing into cylindrical shape and then back to orb hovering for 20- 30 minutes", "dateposted": "5/13/2012", "latitude": 47.6588889, "longitude": -117.425, "year": 2012, "month": 3, "weekday": "Thursday", "hour": 22}, {"datetime": "2010-02-19T00:38:00", "city": "clinton township", "state": "mi", "country": null, "shape": "Chevron", "duration_in_seconds": 240.0, "duration_in_hours_min": "4 minutes", "comments": "Large&#44 intense fiery orange light centered in a chevron&#44 moving silently and slowly in the low night sky.", "dateposted": "4/13/2010", "latitude": 42.586888, "longitude": -82.919551, "year": 2010, "month": 2, "weekday": "Friday", "hour": 0}, {"datetime": "2011-11-01T18:10:00", "city": "beaver", "state": "oh", "country": "us", "shape": "Light", "duration_in_seconds": 15.0, "duration_in_hours_min": "15 seconds", "comments": "Very bright neon orange red elongated light moving through the sky heading south in the evening.", "dateposted": "12/12/2011", "latitude": 39.0305556, "longitude": -82.8244444, "year": 2011, "month": 11, "weekday": "Tuesday", "hour": 18}, {"datetime": "2004-01-29T18:45:00", "city": "levittown", "state": "pa", "country": "us", "shape": "Triangle", "duration_in_seconds": 1800.0, "duration_in_hours_min": "20-30 min", "comments": "bright lights in the sky", "dateposted": "2/12/2004", "latitude": 40.155, "longitude": -74.8291667, "year": 2004, "month": 1, "weekday": "Thursday", "hour": 18}, {"datetime": "2009-09-08T20:18:00", "city": "santa clara", "state": "ca", "country": "us", "shape": "Sphere", "duration_in_seconds": 20.0, "duration_in_hours_min": "20+ seconds", "comments": "brilliant mercury-sized light moving irratically at high speed over Santa Cruz mountains", "dateposted": "12/12/2009", "latitude": 37.3541667, "longitude": -121.9541667, "year": 2009, "month": 9, "weekday": "Tuesday", "hour": 20}, {"datetime": "2008-06-28T22:30:00", "city": "lone pine", "state": "ca", "country": "us", "shape": "Oval", "duration_in_seconds": 300.0, "duration_in_hours_min": "5 mins", "comments": "Saw a flat&#44 elongated&#44 oval-shaped&#44 grayish object with three lights on the underside gliding silently east of Death Valley", "dateposted": "7/5/2008", "latitude": 36.6061111, "longitude": -118.0619444, "year": 2008, "month": 6, "weekday": "Saturday", "hour": 22}, {"datetime": "2003-11-11T20:50:00", "city": "paddock lake", "state": "wi", "country": "us", "shape": "Sphere", "duration_in_seconds": 2.0, "duration_in_hours_min": "2 seconds", "comments": "Silvery sphere&#44 glowing white&#44 headed southwest very quickly from Paddock Lake&#44 Wisconsin", "dateposted": "11/26/2003", "latitude": 42.5775, "longitude": -88.105, "year": 2003, "month": 11, "weekday": "Tuesday", "hour": 20}, {"datetime": "2007-08-20T20:00:00", "city": "myrtle beach", "state": "sc", "country": "us", "shape": "Light", "duration_in_seconds": 300.0, "duration_in_hours_min": "5 minutes", "comments": "Diagonal straight line of three lights fading on and off appearing in different parts of the sky", "dateposted": "11/28/2007", "latitude": 33.6888889, "longitude": -78.8869444, "year": 2007, "month": 8, "weekday": "Monday", "hour": 20}, {"datetime": "1999-03-04T19:00:00", "city": "lancaster", "state": "ca", "country": "us", "shape": "Other", "duration_in_seconds": 480.0, "duration_in_hours_min": "8 minutes", "comments": "Picture perfect white&#44 &quot;comet-like&quot; object moving West to East.  Second object&#44 same as first -- but moving due South. Elapsed time&#44 8", "dateposted": "4/2/1999", "latitude": 34.6980556, "longitude": -118.1358333, "year": 1999, "month": 3, "weekday": "Thursday", "hour": 19}, {"datetime": "2008-11-14T20:30:00", "city": "anaheim", "state": "ca", "country": "us", "shape": "Disk", "duration_in_seconds": 300.0, "duration_in_hours_min": "five minutes", "comments": "Spinning top shaped craft photographed in california November 2008", "dateposted": "11/21/2010", "latitude": 33.8352778, "longitude": -117.9136111, "year": 2008, "month": 11, "weekday": "Friday", "hour": 20}, {"datetime": "2013-12-11T08:25:00", "city": "anchorage", "state": "ak", "country": "us", "shape": "Fireball", "duration_in_seconds": 2.0, "duration_in_hours_min": "2 seconds", "comments": "Anchorage meteor ufo Spenard area.", "dateposted": "12/12/2013", "latitude": 61.2180556, "longitude": -149.9002778, "year": 2013, "month": 12, "weekday": "Wednesday", "hour": 8}, {"datetime": "2012-06-27T10:00:00", "city": "las vegas", "state": "nv", "country": "us", "shape": "Cigar", "duration_in_seconds": 900.0, "duration_in_hours_min": "15 minutes", "comments": "((HOAX)) Luminescent cigar shaped unidentified flying object seen flying low over Las Vegas in daytime followed by mil. helicopters.", "dateposted": "7/4/2012", "latitude": 36.175, "longitude": -115.1363889, "year": 2012, "month": 6, "weekday": "Wednesday", "hour": 10}, {"datetime": "2011-07-21T19:45:00", "city": "hemet", "state": "ca", "country": "us", "shape": "Fireball", "duration_in_seconds": 60.0, "duration_in_hours_min": "1 minute", "comments": "Orange glowing fireball spacecraft over Hemet California on 7/21/11", "dateposted": "8/7/2011", "latitude": 33.7475, "longitude": -116.9711111, "year": 2011, "month": 7, "weekday": "Thursday", "hour": 19}, {"datetime": "2007-01-20T21:00:00", "city": "sliac (slovakia)", "state": null, "country": null, "shape": "Sphere", "duration_in_seconds": 60.0, "duration_in_hours_min": "1 minute", "comments": "2 star-like UFOs&#44 no sound&#44 no additional lights&#44 1 witness&#44 nearby army airport", "dateposted": "10/30/2012", "latitude": 48.61645, "longitude": 19.136023, "year": 2007, "month": 1, "weekday": "Saturday", "hour": 21}, {"datetime": "1973-06-25T22:00:00", "city": "east liverpool", "state": "oh", "country": "us", "shape": "Sphere", "duration_in_seconds": 30.0, "duration_in_hours_min": "30 seconds", "comments": "3-D ufo sighted in 1973 and finally someone to share it with.", "dateposted": "1/31/2004", "latitude": 40.6186111, "longitude": -80.5775, "year": 1973, "month": 6, "weekday": "Monday", "hour": 22}, {"datetime": "2000-02-28T11:00:00", "city": "lehigh acres", "state": "fl", "country": "us", "shape": "Light", "duration_in_seconds": 2.0, "duration_in_hours_min": "2sec", "comments": "WE WERE WATCHING SCIFI AND MAN VIDIOED BY BLOCKING SUN. WE THOUGHT FUNNY AND FIGURED TO TRY. TAPED A DISTINCT OPJECT CAME UP FROM RIGHT", "dateposted": "3/7/2000", "latitude": 26.625, "longitude": -81.625, "year": 2000, "month": 2, "weekday": "Monday", "hour": 11}, {"datetime": "2010-08-13T10:40:00", "city": "winnetka", "state": "ca", "country": "us", "shape": "Light", "duration_in_seconds": 40.0, "duration_in_hours_min": "30 to 40 sec", "comments": "Two halo balls of light hovering over an eagle in daylight.", "dateposted": "8/24/2010", "latitude": 34.2133333, "longitude": -118.5711111, "year": 2010, "month": 8, "weekday": "Friday", "hour": 10}, {"datetime": "2012-07-01T00:00:00", "city": "burgaw", "state": "nc", "country": "us", "shape": "Circle", "duration_in_seconds": 120.0, "duration_in_hours_min": "2 minutes", "comments": "Bright Orange Plasma Ball Photos.", "dateposted": "7/3/2013", "latitude": 34.5519444, "longitude": -77.9263889, "year": 2012, "month": 7, "weekday": "Sunday", "hour": 0}, {"datetime": "2009-04-04T22:00:00", "city": "n. yorkshire (uk/england)", "state": null, "country": null, "shape": "Circle", "duration_in_seconds": 120.0, "duration_in_hours_min": "few mins", "comments": "North Yorkshire&#44 United Kingdom&#44 at around 10pm&#44 round with 5 bright orange lights&#44 flying steadily in perfect formation", "dateposted": "4/14/2009", "latitude": 54.250359, "longitude": -1.470855, "year": 2009, "month": 4, "weekday": "Saturday", "hour": 22}, {"datetime": "2000-10-24T19:15:00", "city": "medina", "state": "oh", "country": "us", "shape": "Diamond", "duration_in_seconds": 2400.0, "duration_in_hours_min": "40 min ?", "comments": "I saw a metallic cone shaped humming object with very bright lights.", "dateposted": "12/2/2000", "latitude": 41.1383333, "longitude": -81.8638889, "year": 2000, "month": 10, "weekday": "Tuesday", "hour": 19}, {"datetime": "2002-04-10T23:00:00", "city": "barrie (canada)", "state": "on", "country": "ca", "shape": "Flash", "duration_in_seconds": 45.0, "duration_in_hours_min": "45 sec", "comments": "A zig zagging light at low altitude travelling east south east at a speed beyond human capability.", "dateposted": "5/14/2002", "latitude": 44.383333, "longitude": -79.7, "year": 2002, "month": 4, "weekday": "Wednesday", "hour": 23}, {"datetime": "2011-09-07T21:00:00", "city": "pflugerville", "state": "tx", "country": "us", "shape": "Formation", "duration_in_seconds": 10.0, "duration_in_hours_min": "10 seconds", "comments": "Craft w/ 2-3 yellowish-orange lights flies slowly parallel to horizon then suddenly flies down below horizon/trees at impossible speed.", "dateposted": "10/10/2011", "latitude": 30.4391667, "longitude": -97.6197222, "year": 2011, "month": 9, "weekday": "Wednesday", "hour": 21}, {"datetime": "2013-08-24T20:00:00", "city": "bemus point", "state": "ny", "country": "us", "shape": "Circle", "duration_in_seconds": 3600.0, "duration_in_hours_min": "1 hour", "comments": "Round white and red lighted object over Chautauqua Lake&#44 August 24&#44 2013", "dateposted": "8/30/2013", "latitude": 42.1616667, "longitude": -79.3919444, "year": 2013, "month": 8, "weekday": "Saturday", "hour": 20}, {"datetime": "2005-05-06T00:30:00", "city": "portsmouth (uk/england)", "state": null, "country": "gb", "shape": "Cigar", "duration_in_seconds": 300.0, "duration_in_hours_min": "5 mins appox", "comments": "cigar shape craft seen", "dateposted": "7/5/2005", "latitude": 50.7967, "longitude": -1.083333, "year": 2005, "month": 5, "weekday": "Friday", "hour": 0}, {"datetime": "2007-06-23T21:30:00", "city": "saint cloud", "state": "fl", "country": "us", "shape": "Fireball", "duration_in_seconds": 600.0, "duration_in_hours_min": "5-10 mins", "comments": "Red glowing light west of Kennedy Space Center", "dateposted": "8/7/2007", "latitude": 28.2486111, "longitude": -81.2813889, "year": 2007, "month": 6, "weekday": "Saturday", "hour": 21}, {"datetime": "2008-04-23T01:00:00", "city": "montreal (canada)", "state": "qc", "country": "ca", "shape": "Other", "duration_in_seconds": 7200.0, "duration_in_hours_min": "2 hours", "comments": "20-30 moving lights in Montreal Canada.", "dateposted": "6/12/2008", "latitude": 45.5, "longitude": -73.583333, "year": 2008, "month": 4, "weekday": "Wednesday", "hour": 1}, {"datetime": "2001-06-16T23:46:00", "city": "squamish (canada)", "state": "bc", "country": "ca", "shape": "Changing", "duration_in_seconds": 180.0, "duration_in_hours_min": "2 or 3 minutes", "comments": "One white hot explosion&#44 two light objects connect then vanish in Canada.", "dateposted": "8/5/2001", "latitude": 49.7, "longitude": -123.15, "year": 2001, "month": 6, "weekday": "Saturday", "hour": 23}, {"datetime": "2014-05-03T22:20:00", "city": "thomasville", "state": "nc", "country": "us", "shape": "Light", "duration_in_seconds": 120.0, "duration_in_hours_min": "1-2 minutes", "comments": "High Altitude bright light follows odd path in NC Sky", "dateposted": "5/8/2014", "latitude": 35.8825, "longitude": -80.0822222, "year": 2014, "month": 5, "weekday": "Saturday", "hour": 22}, {"datetime": "2009-12-02T03:24:00", "city": "seattle", "state": "wa", "country": "us", "shape": "Fireball", "duration_in_seconds": 10.0, "duration_in_hours_min": "5-10 seconds", "comments": "Bright hot object leaving trail over Seattle in early morning of December 2nd&#44 2009", "dateposted": "12/12/2009", "latitude": 47.6063889, "longitude": -122.3308333, "year": 2009, "month": 12, "weekday": "Wednesday", "hour": 3}, {"datetime": "2006-10-14T02:00:00", "city": "waterbury", "state": "ct", "country": "us", "shape": "Fireball", "duration_in_seconds": 5.0, "duration_in_hours_min": "5 seconds", "comments": "2nd Witness: Large bluegreen fireball fell acrosss the sky in Fairfield Connecticut", "dateposted": "2/1/2007", "latitude": 41.5580556, "longitude": -73.0519444, "year": 2006, "month": 10, "weekday": "Saturday", "hour": 2}, {"datetime": "2010-10-03T22:00:00", "city": "new york city", "state": "ny", "country": "us", "shape": "Light", "duration_in_seconds": 300.0, "duration_in_hours_min": "5 mins", "comments": "about 7 flying objects above New York Sky", "dateposted": "11/21/2010", "latitude": 40.7141667, "longitude": -74.0063889, "year": 2010, "month": 10, "weekday": "Sunday", "hour": 22}, {"datetime": "2005-09-18T20:30:00", "city": "dayton", "state": "oh", "country": "us", "shape": "Fireball", "duration_in_seconds": 60.0, "duration_in_hours_min": "1minute", "comments": "A fireball in the southwestern hemosphere that was five times the size of a planet that lasted for 60 seconds", "dateposted": "10/11/2005", "latitude": 39.7588889, "longitude": -84.1916667, "year": 2005, "month": 9, "weekday": "Sunday", "hour": 20}, {"datetime": "2012-07-20T22:35:00", "city": "mossel bay (south africa)", "state": null, "country": null, "shape": "Circle", "duration_in_seconds": 3600.0, "duration_in_hours_min": "1 hour", "comments": "The object was seen over the area on three occasions between the middle of July 2012 until the end of July 2012. It first appeared stat", "dateposted": "8/19/2012", "latitude": -34.183333, "longitude": 22.133333, "year": 2012, "month": 7, "weekday": "Friday", "hour": 22}, {"datetime": "2008-03-23T12:55:00", "city": "albuquerque", "state": "nm", "country": "us", "shape": "Flash", "duration_in_seconds": 180.0, "duration_in_hours_min": "two to three mins.", "comments": "Small flashing white light &amp; large fast white oval......", "dateposted": "3/31/2008", "latitude": 35.0844444, "longitude": -106.6505556, "year": 2008, "month": 3, "weekday": "Sunday", "hour": 12}, {"datetime": "2002-03-20T23:30:00", "city": "quartzite", "state": "az", "country": null, "shape": "Other", "duration_in_seconds": 45.0, "duration_in_hours_min": "45 seconds", "comments": "Very bright circular light with a rounded dark object behind it appeared&#44 moving S to NE&#44 then disappeared.", "dateposted": "4/8/2002", "latitude": 33.663914, "longitude": -114.229949, "year": 2002, "month": 3, "weekday": "Wednesday", "hour": 23}, {"datetime": "2010-10-08T19:37:00", "city": "shelbyville", "state": "tn", "country": "us", "shape": "Oval", "duration_in_seconds": 1140.0, "duration_in_hours_min": "19 minutes", "comments": "strange moving oval craft  running from other aircraft with a very erratic behavior at night..........", "dateposted": "11/21/2010", "latitude": 35.4833333, "longitude": -86.4602778, "year": 2010, "month": 10, "weekday": "Friday", "hour": 19}, {"datetime": "2006-10-06T22:00:00", "city": "bakersville (roan mountain)", "state": "nc", "country": "us", "shape": "Disk", "duration_in_seconds": 10.0, "duration_in_hours_min": "8-10 seconds", "comments": "I don&#39t have a calandar handy&#44 it was on the first Friday in October 06. I observed a round object for about 8 or 10 seconds. It had a", "dateposted": "4/27/2007", "latitude": 36.0155556, "longitude": -82.1588889, "year": 2006, "month": 10, "weekday": "Friday", "hour": 22}, {"datetime": "2008-01-19T20:30:00", "city": "toronto (canada)", "state": "on", "country": "ca", "shape": "Oval", "duration_in_seconds": 900.0, "duration_in_hours_min": "15 min", "comments": "01/19/08 20.30 Toronto Ont Canada  black round sphere with triangle formation lights on bottom", "dateposted": "2/14/2008", "latitude": 43.666667, "longitude": -79.416667, "year": 2008, "month": 1, "weekday": "Saturday", "hour": 20}, {"datetime": "2005-10-16T17:39:00", "city": "rosthern (canada)", "state": "sk", "country": "ca", "shape": "Cylinder", "duration_in_seconds": 120.0, "duration_in_hours_min": "2 minutes", "comments": "Oct/ 16 sun 2005; Me and my daughter and while on the way home from a convience store saw a silver sparkle in the sky; it was a clear e", "dateposted": "10/20/2005", "latitude": 52.65, "longitude": -106.333333, "year": 2005, "month": 10, "weekday": "Sunday", "hour": 17}, {"datetime": "2013-03-08T21:02:00", "city": "alliance", "state": "oh", "country": "us", "shape": "Formation", "duration_in_seconds": 480.0, "duration_in_hours_min": "5-8 minutes", "comments": "Glowing triangular cluster flies over house with 3-4 chasing from behind", "dateposted": "4/12/2013", "latitude": 40.9152778, "longitude": -81.1061111, "year": 2013, "month": 3, "weekday": "Friday", "hour": 21}, {"datetime": "2008-07-04T21:45:00", "city": "eugene", "state": "or", "country": "us", "shape": "Light", "duration_in_seconds": 15.0, "duration_in_hours_min": "15 seconds", "comments": "Orange light ascending at a 75 degree angle on a straight trajectory.", "dateposted": "8/12/2008", "latitude": 44.0522222, "longitude": -123.0855556, "year": 2008, "month": 7, "weekday": "Friday", "hour": 21}, {"datetime": "2011-08-21T22:10:00", "city": "london (uk/england)", "state": null, "country": "gb", "shape": "Teardrop", "duration_in_seconds": 120.0, "duration_in_hours_min": "2 minutes", "comments": "Very bright Star in London moving slowly overhead.  Have good pictures.", "dateposted": "8/21/2011", "latitude": 51.514125, "longitude": -0.093689, "year": 2011, "month": 8, "weekday": "Sunday", "hour": 22}, {"datetime": "1992-03-22T18:30:00", "city": "beaumont/sour lake", "state": "tx", "country": null, "shape": "Unknown", "duration_in_seconds": 1800.0, "duration_in_hours_min": "30 min", "comments": "It was a huge craft with several lights rotating on and off in a circle manner located under the craft.", "dateposted": "2/22/2002", "latitude": 30.087696, "longitude": -94.277055, "year": 1992, "month": 3, "weekday": "Sunday", "hour": 18}, {"datetime": "2008-07-25T22:00:00", "city": "elizabeth", "state": "pa", "country": "us", "shape": "Other", "duration_in_seconds": 420.0, "duration_in_hours_min": "5-7 minutes", "comments": "Dark shiny disk that appeared to be on fire", "dateposted": "8/12/2008", "latitude": 40.2691667, "longitude": -79.89, "year": 2008, "month": 7, "weekday": "Friday", "hour": 22}, {"datetime": "2012-01-01T18:45:00", "city": "fuquay varina", "state": "nc", "country": null, "shape": "Circle", "duration_in_seconds": 120.0, "duration_in_hours_min": "2 minutes", "comments": "Very&#44 very fast moving bright white object&#44  not a shooting star. Diagnoal Movement.", "dateposted": "1/12/2012", "latitude": 35.584324, "longitude": -78.800013, "year": 2012, "month": 1, "weekday": "Sunday", "hour": 18}, {"datetime": "2006-11-04T21:20:00", "city": "bloomington", "state": "ca", "country": "us", "shape": "Light", "duration_in_seconds": 3.0, "duration_in_hours_min": "3 seconds", "comments": "While driving home in Bloomington&#44 we turned westbound on Jurupa from Locust Ave.  I noticed a green light in the sky directly in front", "dateposted": "12/7/2006", "latitude": 34.0702778, "longitude": -117.395, "year": 2006, "month": 11, "weekday": "Saturday", "hour": 21}, {"datetime": "2012-09-20T01:30:00", "city": "kalkaska", "state": "mi", "country": "us", "shape": "Light", "duration_in_seconds": 3600.0, "duration_in_hours_min": "1 hour", "comments": "Kalkaska&#44 MI. A hovering light at 1:30 in the morning was seen on September 21&#44 2012.", "dateposted": "9/24/2012", "latitude": 44.7341667, "longitude": -85.1758333, "year": 2012, "month": 9, "weekday": "Thursday", "hour": 1}, {"datetime": "2003-01-22T21:30:00", "city": "maricopa", "state": "az", "country": "us", "shape": "Light", "duration_in_seconds": 900.0, "duration_in_hours_min": "15 minutes", "comments": "Amber/Orange Lights", "dateposted": "3/21/2003", "latitude": 33.0580556, "longitude": -112.0469444, "year": 2003, "month": 1, "weekday": "Wednesday", "hour": 21}, {"datetime": "1986-07-15T07:30:00", "city": "las vegas", "state": "nm", "country": "us", "shape": "Changing", "duration_in_seconds": 180.0, "duration_in_hours_min": "around 2-3 minutes", "comments": "luminous object hangs in air&#44 disappears rapidly in the distance", "dateposted": "8/28/2003", "latitude": 35.5938889, "longitude": -105.2233333, "year": 1986, "month": 7, "weekday": "Tuesday", "hour": 7}, {"datetime": "2000-07-04T17:30:00", "city": "loves park", "state": "il", "country": "us", "shape": "Cigar", "duration_in_seconds": 2400.0, "duration_in_hours_min": "40 minutes", "comments": "long worm type object that changed shape. never decended but gained altitude and disappeared into clouds.", "dateposted": "7/23/2000", "latitude": 42.32, "longitude": -89.0580556, "year": 2000, "month": 7, "weekday": "Tuesday", "hour": 17}, {"datetime": "2006-04-04T21:22:00", "city": "richmond (canada)", "state": "bc", "country": "ca", "shape": "Triangle", "duration_in_seconds": 6.0, "duration_in_hours_min": "6 seconds", "comments": "Triangular object travelling at very high speed with three light with no audiable sound = UFO?", "dateposted": "5/15/2006", "latitude": 45.666667, "longitude": -72.15, "year": 2006, "month": 4, "weekday": "Tuesday", "hour": 21}, {"datetime": "2009-09-19T19:50:00", "city": "burlington", "state": "nj", "country": "us", "shape": "Cone", "duration_in_seconds": 30.0, "duration_in_hours_min": "30 seconds", "comments": "7:50 PM&#44 cone-shaped object&#44 three spot-light type lights.  ((NUFORC Note:  Missile launch.  PD))", "dateposted": "12/12/2009", "latitude": 40.0711111, "longitude": -74.8652778, "year": 2009, "month": 9, "weekday": "Saturday", "hour": 19}, {"datetime": "2005-12-05T07:00:00", "city": "ypsilanti", "state": "mi", "country": "us", "shape": "Other", "duration_in_seconds": 600.0, "duration_in_hours_min": "10 minutes", "comments": "Boomerang style crafted spotted with no sound only lights on the craft.", "dateposted": "5/15/2006", "latitude": 42.2411111, "longitude": -83.6130556, "year": 2005, "month": 12, "weekday": "Monday", "hour": 7}, {"datetime": "1986-09-18T16:00:00", "city": "owensboro", "state": "ky", "country": "us", "shape": "Cylinder", "duration_in_seconds": 180.0, "duration_in_hours_min": "approx 3 minutes", "comments": "&quot;Baton-shaped&quot; object moving end-over-end in clear afternoon sky.", "dateposted": "9/17/2000", "latitude": 37.7741667, "longitude": -87.1133333, "year": 1986, "month": 9, "weekday": "Thursday", "hour": 16}, {"datetime": "2013-04-01T20:00:00", "city": "wilmington", "state": "nc", "country": "us", "shape": "Chevron", "duration_in_seconds": 2.0, "duration_in_hours_min": "2 seconds", "comments": "Chevron shaped lights that flashed &amp; disappeared in the northeast sky.", "dateposted": "5/15/2013", "latitude": 34.2255556, "longitude": -77.945, "year": 2013, "month": 4, "weekday": "Monday", "hour": 20}, {"datetime": "2007-04-20T21:19:00", "city": "wynnewood", "state": "pa", "country": "us", "shape": "Triangle", "duration_in_seconds": 120.0, "duration_in_hours_min": "2 min", "comments": "No sound and had no apparent windows", "dateposted": "4/27/2007", "latitude": 40.0027778, "longitude": -75.2711111, "year": 2007, "month": 4, "weekday": "Friday", "hour": 21}, {"datetime": "2001-06-11T00:00:00", "city": "follansbee", "state": "wv", "country": "us", "shape": "Other", "duration_in_seconds": 10.0, "duration_in_hours_min": "10 sec", "comments": "The craft appeared and looked like a pearl material and had a metal circle on the bottom.", "dateposted": "5/13/2012", "latitude": 40.3275, "longitude": -80.5961111, "year": 2001, "month": 6, "weekday": "Monday", "hour": 0}, {"datetime": "2006-10-10T12:37:00", "city": "blairsville", "state": "ga", "country": "us", "shape": "Unknown", "duration_in_seconds": 10.0, "duration_in_hours_min": "<10 sec.", "comments": "Intermittant streak by moon&#44 not seen on photo taken 10 seconds earlier.", "dateposted": "10/30/2006", "latitude": 34.8761111, "longitude": -83.9583333, "year": 2006, "month": 10, "weekday": "Tuesday", "hour": 12}, {"datetime": "2011-01-03T22:40:00", "city": "national city", "state": "ca", "country": "us", "shape": "Fireball", "duration_in_seconds": 300.0, "duration_in_hours_min": "5 min", "comments": "Fireball looking object floated over national city then dissapeared", "dateposted": "1/5/2011", "latitude": 32.6780556, "longitude": -117.0983333, "year": 2011, "month": 1, "weekday": "Monday", "hour": 22}, {"datetime": "2009-02-14T00:00:00", "city": "smyrna mills/oakfield/island falls&#44 and patten", "state": "me", "country": null, "shape": "Cigar", "duration_in_seconds": 2.0, "duration_in_hours_min": "a few seconds", "comments": "I personally&#44 was driving home from a boyfriend&#39s house while on the phone with him and noticed the sky light up bright blue for just a", "dateposted": "3/19/2009", "latitude": 45.996439, "longitude": -68.446142, "year": 2009, "month": 2, "weekday": "Saturday", "hour": 0}, {"datetime": "1951-01-20T04:30:00", "city": "palm springs", "state": "ca", "country": "us", "shape": "Cigar", "duration_in_seconds": 3.0, "duration_in_hours_min": "one and a half hours", "comments": "01/20/51     Palm Springs CA     light     hour and a half     bluish-white light of worm-like shape        04/09/06", "dateposted": "5/15/2006", "latitude": 33.8302778, "longitude": -116.5444444, "year": 1951, "month": 1, "weekday": "Saturday", "hour": 4}, {"datetime": "2009-10-17T01:45:00", "city": "los angeles", "state": "ca", "country": "us", "shape": "Other", "duration_in_seconds": 420.0, "duration_in_hours_min": "5-7 mins", "comments": "Estimated-Time: 01:45am&#44 Estimated-Date: October 17&#44 2009&#44 Length: 7-10ft&#44 width: 2-3ft&#44 Color: Faded Bluish Florescent&#44  Altitude: 40-", "dateposted": "6/23/2010", "latitude": 34.0522222, "longitude": -118.2427778, "year": 2009, "month": 10, "weekday": "Saturday", "hour": 1}, {"datetime": "2001-03-19T19:29:00", "city": "raleigh", "state": "nc", "country": "us", "shape": "Light", "duration_in_seconds": 120.0, "duration_in_hours_min": "2 min.", "comments": "Unidentified object that did not have required flashing light travels alongside and aircraft with normal lights.", "dateposted": "4/1/2001", "latitude": 35.7719444, "longitude": -78.6388889, "year": 2001, "month": 3, "weekday": "Monday", "hour": 19}, {"datetime": "2012-03-24T19:40:00", "city": "brighton", "state": "il", "country": "us", "shape": "Light", "duration_in_seconds": 600.0, "duration_in_hours_min": "10 minutes", "comments": "Orange Orbs Ascend From the Northwest.", "dateposted": "5/13/2012", "latitude": 39.0397222, "longitude": -90.1405556, "year": 2012, "month": 3, "weekday": "Saturday", "hour": 19}, {"datetime": "2010-12-08T00:00:00", "city": "fredericton (canada)", "state": "nb", "country": "ca", "shape": "Disk", "duration_in_seconds": 3600.0, "duration_in_hours_min": "1 hr", "comments": "((HOAX??))  multiple object sightings", "dateposted": "7/4/2011", "latitude": 45.95, "longitude": -66.633333, "year": 2010, "month": 12, "weekday": "Wednesday", "hour": 0}, {"datetime": "2009-06-12T20:30:00", "city": "butler", "state": "mo", "country": "us", "shape": "Unknown", "duration_in_seconds": 720.0, "duration_in_hours_min": "10-12 minutes", "comments": "((HOAX??))  3-4 shiny objects in sky&#44 no jet streams&#44 no noise..appeared to have popped up in the sky from nowhere.", "dateposted": "8/5/2009", "latitude": 38.2538, "longitude": -94.3356, "year": 2009, "month": 6, "weekday": "Friday", "hour": 20}, {"datetime": "2003-10-11T20:00:00", "city": "frederick", "state": "co", "country": "us", "shape": "Unknown", "duration_in_seconds": 10.0, "duration_in_hours_min": "10 seconds", "comments": "Large flash outside the house rattling the windows with a low hum.", "dateposted": "10/15/2003", "latitude": 40.0991667, "longitude": -104.9366667, "year": 2003, "month": 10, "weekday": "Saturday", "hour": 20}, {"datetime": "2012-02-11T18:30:00", "city": "ottawa (canada)", "state": "on", "country": "ca", "shape": "Light", "duration_in_seconds": 15.0, "duration_in_hours_min": "15 seconds", "comments": "Green light&#44 then vanished...", "dateposted": "3/13/2012", "latitude": 45.416667, "longitude": -75.7, "year": 2012, "month": 2, "weekday": "Saturday", "hour": 18}, {"datetime": "2004-10-28T21:50:00", "city": "st. francis", "state": "ks", "country": "us", "shape": "Light", "duration_in_seconds": 30.0, "duration_in_hours_min": "30 seconds", "comments": "Very Bright Lights", "dateposted": "1/19/2005", "latitude": 39.7722222, "longitude": -101.7994444, "year": 2004, "month": 10, "weekday": "Thursday", "hour": 21}, {"datetime": "2000-07-27T20:15:00", "city": "gilbert", "state": "az", "country": "us", "shape": "Light", "duration_in_seconds": 300.0, "duration_in_hours_min": "5 min", "comments": "i saw a red light in the south eastern sky it was stationary for 3 minites &amp; then appeared to land this light was diffrent than the one", "dateposted": "7/29/2000", "latitude": 33.3527778, "longitude": -111.7883333, "year": 2000, "month": 7, "weekday": "Thursday", "hour": 20}, {"datetime": "2001-03-15T16:31:00", "city": "arlington", "state": "wa", "country": "us", "shape": "Fireball", "duration_in_seconds": 15.0, "duration_in_hours_min": "10 to 15 sec", "comments": "I saw lights over Mt. Baker", "dateposted": "4/1/2001", "latitude": 48.1988889, "longitude": -122.1238889, "year": 2001, "month": 3, "weekday": "Thursday", "hour": 16}, {"datetime": "1962-06-30T17:30:00", "city": "royal oak", "state": "mi", "country": "us", "shape": "Disk", "duration_in_seconds": 600.0, "duration_in_hours_min": "5-10 min", "comments": "Ship over Royal Oak&#44 early 60s", "dateposted": "5/29/2011", "latitude": 42.4894444, "longitude": -83.1447222, "year": 1962, "month": 6, "weekday": "Saturday", "hour": 17}, {"datetime": "2014-01-07T20:00:00", "city": "san tan valley", "state": "az", "country": null, "shape": "Light", "duration_in_seconds": 10.0, "duration_in_hours_min": "10 seconds", "comments": "Three bright orange lites in succession in semi-circle repeate in southerly direction.", "dateposted": "1/10/2014", "latitude": 33.170278, "longitude": -111.572222, "year": 2014, "month": 1, "weekday": "Tuesday", "hour": 20}, {"datetime": "2004-08-31T21:15:00", "city": "easton", "state": "pa", "country": "us", "shape": "Triangle", "duration_in_seconds": 180.0, "duration_in_hours_min": "3 minutes", "comments": "8/31/04 21:15  large triangular shaped craft seen in sky Easton&#44 PA", "dateposted": "9/1/2004", "latitude": 40.6883333, "longitude": -75.2211111, "year": 2004, "month": 8, "weekday": "Tuesday", "hour": 21}, {"datetime": "2012-05-21T00:50:00", "city": "tucson", "state": "az", "country": "us", "shape": "Light", "duration_in_seconds": 20.0, "duration_in_hours_min": "20 sec.", "comments": "Looked similar to shooting star&#44 but flew much slower and suddenly lit up with incredible brightness and disappeared", "dateposted": "5/29/2012", "latitude": 32.2216667, "longitude": -110.9258333, "year": 2012, "month": 5, "weekday": "Monday", "hour": 0}, {"datetime": "2004-08-21T22:30:00", "city": "tinley park", "state": "il", "country": "us", "shape": "Circle", "duration_in_seconds": 900.0, "duration_in_hours_min": "15 minutes", "comments": "flashing red lights&#44 not ANYTHING like an airplane.", "dateposted": "8/24/2004", "latitude": 41.5733333, "longitude": -87.7844444, "year": 2004, "month": 8, "weekday": "Saturday", "hour": 22}, {"datetime": "2000-01-18T18:15:00", "city": "dayton township", "state": "nv", "country": null, "shape": "Oval", "duration_in_seconds": 30.0, "duration_in_hours_min": ":30", "comments": "A bright light shone straight out of an object which appeared to be oval and surrounded by a smoke or fog like cloud. The light cut thr", "dateposted": "1/22/2000", "latitude": 38.80261, "longitude": -116.419389, "year": 2000, "month": 1, "weekday": "Tuesday", "hour": 18}, {"datetime": "2000-09-27T19:30:00", "city": "highlands ranch", "state": "co", "country": "us", "shape": "Triangle", "duration_in_seconds": 180.0, "duration_in_hours_min": "3 minutes", "comments": "Triangle object&#44 orange&#44 blue and red lights&#44 no sound&#44 high speeds&#44close to ground.", "dateposted": "6/12/2002", "latitude": 39.5538889, "longitude": -104.9688889, "year": 2000, "month": 9, "weekday": "Wednesday", "hour": 19}, {"datetime": "1989-08-24T23:45:00", "city": "accokeek", "state": "md", "country": "us", "shape": "Unknown", "duration_in_seconds": 300.0, "duration_in_hours_min": "3-5 minutes", "comments": "While traveling on the same road for three consecutive nights&#44 at about the same time each night&#44 all power on my vehicle suddenly stop", "dateposted": "8/10/1999", "latitude": 38.6675, "longitude": -77.0286111, "year": 1989, "month": 8, "weekday": "Thursday", "hour": 23}, {"datetime": "2009-11-27T18:00:00", "city": "chadds ford", "state": "pa", "country": "us", "shape": "Triangle", "duration_in_seconds": 10.0, "duration_in_hours_min": "10 seconds", "comments": "Driving south on Rt.1 through Chadds Ford&#44 Pa. on black Friday (day after Thanksgiving). Before passing Longwood Gardens on the way to", "dateposted": "12/12/2009", "latitude": 39.8716667, "longitude": -75.5916667, "year": 2009, "month": 11, "weekday": "Friday", "hour": 18}, {"datetime": "2008-09-29T22:00:00", "city": "santa maria", "state": "ca", "country": "us", "shape": "Triangle", "duration_in_seconds": 1800.0, "duration_in_hours_min": "30 min", "comments": "3 objects flying over Santa Maria&#44 Ca", "dateposted": "10/31/2008", "latitude": 34.9530556, "longitude": -120.4347222, "year": 2008, "month": 9, "weekday": "Monday", "hour": 22}, {"datetime": "2014-04-20T01:15:00", "city": "new glarus", "state": "wi", "country": "us", "shape": "Other", "duration_in_seconds": 5.0, "duration_in_hours_min": "5 seconds", "comments": "Orbs and rod craft observed.", "dateposted": "4/24/2014", "latitude": 42.8144444, "longitude": -89.635, "year": 2014, "month": 4, "weekday": "Sunday", "hour": 1}, {"datetime": "1973-10-15T23:00:00", "city": "germany (czech border)", "state": null, "country": null, "shape": "Flash", "duration_in_seconds": 60.0, "duration_in_hours_min": "1 minute", "comments": "It&#39s not the only time &#33&#33", "dateposted": "8/1/2003", "latitude": 51.165691, "longitude": 10.451526, "year": 1973, "month": 10, "weekday": "Monday", "hour": 23}, {"datetime": "1991-06-05T17:00:00", "city": "brawley (rest stop close to; near yuma)", "state": "ca", "country": "us", "shape": "Light", "duration_in_seconds": 1800.0, "duration_in_hours_min": "30 minutes", "comments": "At a rest area in southern California my family and I vidiotaped a number of orange lights above a water tower that didn&#39t move that al", "dateposted": "10/19/1999", "latitude": 32.9786111, "longitude": -115.5294444, "year": 1991, "month": 6, "weekday": "Wednesday", "hour": 17}, {"datetime": "2003-02-28T21:00:00", "city": "crystal river", "state": "fl", "country": "us", "shape": "Flash", "duration_in_seconds": 5.0, "duration_in_hours_min": "5 seconds", "comments": "On the evening stated &#44 Feb.28th &#442003 ..myself &#44my mother and father were sitting in their living room. Time was about 9 oclock . All", "dateposted": "7/16/2003", "latitude": 28.9022222, "longitude": -82.5927778, "year": 2003, "month": 2, "weekday": "Friday", "hour": 21}, {"datetime": "2004-04-20T08:45:00", "city": "litchfield park", "state": "az", "country": "us", "shape": "Triangle", "duration_in_seconds": 180.0, "duration_in_hours_min": "8:45-8:47", "comments": "to dark to see color.", "dateposted": "8/11/2004", "latitude": 33.4933333, "longitude": -112.3572222, "year": 2004, "month": 4, "weekday": "Tuesday", "hour": 8}, {"datetime": "2007-12-31T20:45:00", "city": "san diego", "state": "ca", "country": "us", "shape": "Light", "duration_in_seconds": 2700.0, "duration_in_hours_min": "45 minutes", "comments": "red and yellow lights off the coast by the Ocean Beach Pier in San Diego", "dateposted": "2/14/2008", "latitude": 32.7152778, "longitude": -117.1563889, "year": 2007, "month": 12, "weekday": "Monday", "hour": 20}, {"datetime": "2010-11-05T19:30:00", "city": "port hueneme", "state": "ca", "country": "us", "shape": "Fireball", "duration_in_seconds": 300.0, "duration_in_hours_min": "3-5 minutes", "comments": "Flying object on fire then glowing White in sky Over Ocean", "dateposted": "11/21/2010", "latitude": 34.1477778, "longitude": -119.1941667, "year": 2010, "month": 11, "weekday": "Friday", "hour": 19}, {"datetime": "1999-02-02T21:30:00", "city": "charlotte", "state": "nc", "country": "us", "shape": "Fireball", "duration_in_seconds": 14.0, "duration_in_hours_min": "14 seconds", "comments": "I&#39m an Engieer and former Air Traffic controller. I spotted a Green Fireball. I waited to hear someone else report this but none els ha", "dateposted": "4/2/1999", "latitude": 35.2269444, "longitude": -80.8433333, "year": 1999, "month": 2, "weekday": "Tuesday", "hour": 21}, {"datetime": "2002-05-14T22:30:00", "city": "seattle", "state": "wa", "country": "us", "shape": "Light", "duration_in_seconds": 30.0, "duration_in_hours_min": "30 seconds", "comments": "Anomalous bright light.", "dateposted": "6/12/2002", "latitude": 47.6063889, "longitude": -122.3308333, "year": 2002, "month": 5, "weekday": "Tuesday", "hour": 22}, {"datetime": "1976-11-12T18:00:00", "city": "tarboro", "state": "nc", "country": "us", "shape": "Disk", "duration_in_seconds": 5400.0, "duration_in_hours_min": "1 hour/30 min.", "comments": "We  saw  a  disc  with  lights&#44  it appeared  to  land  in  nearby  woods&#44  observed  strange  person.", "dateposted": "8/16/2002", "latitude": 35.8966667, "longitude": -77.5361111, "year": 1976, "month": 11, "weekday": "Friday", "hour": 18}, {"datetime": "2005-04-08T17:00:00", "city": "utica", "state": "ny", "country": "us", "shape": "Circle", "duration_in_seconds": 5.0, "duration_in_hours_min": ">5 seconds", "comments": "Shiny&#44 circular craft flying in a straight line.", "dateposted": "4/16/2005", "latitude": 43.1008333, "longitude": -75.2330556, "year": 2005, "month": 4, "weekday": "Friday", "hour": 17}, {"datetime": "1999-03-20T01:24:00", "city": "lansing", "state": "mi", "country": "us", "shape": "Disk", "duration_in_seconds": 3.0, "duration_in_hours_min": "3 seconds", "comments": "It appeared from the southwestern sky and dropped very slowly into the south-southeast horizon.. slower than any meteorite but faster t", "dateposted": "4/2/1999", "latitude": 42.7325, "longitude": -84.5555556, "year": 1999, "month": 3, "weekday": "Saturday", "hour": 1}, {"datetime": "1998-10-29T03:00:00", "city": "lihue (kauai)", "state": "hi", "country": "us", "shape": "Other", "duration_in_seconds": 600.0, "duration_in_hours_min": "7-10min", "comments": "I saw what at first was one glowing greenish light and then a total of three that moved in unison in a square pattern down/up and then", "dateposted": "11/19/1998", "latitude": 21.9811111, "longitude": -159.3711111, "year": 1998, "month": 10, "weekday": "Thursday", "hour": 3}, {"datetime": "2012-12-05T18:40:00", "city": "eastgate", "state": "oh", "country": null, "shape": "Rectangle", "duration_in_seconds": 60.0, "duration_in_hours_min": "1 minute", "comments": "Yellow lights seen above Eastgate&#44 Ohio appearing-re-appearing in different locations in sky.  6:45 pm 12/2.", "dateposted": "12/20/2012", "latitude": 39.975755, "longitude": -82.948811, "year": 2012, "month": 12, "weekday": "Wednesday", "hour": 18}, {"datetime": "2012-01-06T17:00:00", "city": "seminole", "state": "ok", "country": "us", "shape": "Circle", "duration_in_seconds": 200.0, "duration_in_hours_min": "3 minutes 20 seconds", "comments": "Silver ball shaped object near jet&#44 moved in opposite direction of jet&#44 blinked like a star&#44 heavy jet traffic", "dateposted": "1/12/2012", "latitude": 35.2244444, "longitude": -96.6702778, "year": 2012, "month": 1, "weekday": "Friday", "hour": 17}, {"datetime": "2004-10-30T21:01:00", "city": "lincoln", "state": "ne", "country": "us", "shape": "Other", "duration_in_seconds": 960.0, "duration_in_hours_min": "16 mins", "comments": "Two red lights.  It was like they were on each end of a bar and just moving slowly from the east sky to the south sky and faded as they", "dateposted": "12/3/2004", "latitude": 40.8, "longitude": -96.6666667, "year": 2004, "month": 10, "weekday": "Saturday", "hour": 21}, {"datetime": "1996-04-22T17:00:00", "city": "gunteersville", "state": "al", "country": null, "shape": "Circle", "duration_in_seconds": 120.0, "duration_in_hours_min": "2min", "comments": "new type of ufos almost un seeable to the eye", "dateposted": "1/17/2004", "latitude": 34.358147, "longitude": -86.294704, "year": 1996, "month": 4, "weekday": "Monday", "hour": 17}, {"datetime": "2011-10-29T22:00:00", "city": "encinitas", "state": "ca", "country": "us", "shape": "Light", "duration_in_seconds": 30.0, "duration_in_hours_min": "30 seconds", "comments": "Two orange orbs 200 ft away&#44 disappear into thin air.", "dateposted": "12/12/2011", "latitude": 33.0369444, "longitude": -117.2911111, "year": 2011, "month": 10, "weekday": "Saturday", "hour": 22}, {"datetime": "2001-06-30T05:00:00", "city": "enon", "state": "oh", "country": "us", "shape": "Light", "duration_in_seconds": 300.0, "duration_in_hours_min": "5 minutes", "comments": "Hovering bright light with no noise.", "dateposted": "12/12/2011", "latitude": 39.8780556, "longitude": -83.9369444, "year": 2001, "month": 6, "weekday": "Saturday", "hour": 5}, {"datetime": "1961-06-10T19:30:00", "city": "carrollton", "state": "tx", "country": "us", "shape": "Unknown", "duration_in_seconds": 60.0, "duration_in_hours_min": "1 minute", "comments": "A greenish light lit up the whole area.", "dateposted": "6/12/2008", "latitude": 32.9536111, "longitude": -96.89, "year": 1961, "month": 6, "weekday": "Saturday", "hour": 19}, {"datetime": "1999-04-08T00:00:00", "city": "cardiff-by-the-sea", "state": "ca", "country": "us", "shape": "Fireball", "duration_in_seconds": 600.0, "duration_in_hours_min": "7-10 minutes", "comments": "A ball of orange light&#44 5X apparent size of a star. Drifted SW towards E.  No flashing lights. Soundless except for once when it seemed", "dateposted": "4/26/1999", "latitude": 33.0216667, "longitude": -117.2802778, "year": 1999, "month": 4, "weekday": "Thursday", "hour": 0}, {"datetime": "2010-07-11T21:45:00", "city": "taneytown", "state": "md", "country": "us", "shape": "Light", "duration_in_seconds": 3600.0, "duration_in_hours_min": "1 hour", "comments": " I noticed that the stars didn&#8217;t seem right. There was an unusual pattern.  ((NUFORC Note:  Probably a star or planet?  PD))", "dateposted": "7/19/2010", "latitude": 39.6577778, "longitude": -77.1747222, "year": 2010, "month": 7, "weekday": "Sunday", "hour": 21}, {"datetime": "1998-12-28T22:35:00", "city": "kure beach", "state": "nc", "country": "us", "shape": "Cone", "duration_in_seconds": 300.0, "duration_in_hours_min": "5 min", "comments": "Craft approached as a star in the night sky - zig zaged extemely fast side to side.  Hovered over ocean&#44motionless suspended for approx", "dateposted": "2/23/2000", "latitude": 33.9966667, "longitude": -77.9075, "year": 1998, "month": 12, "weekday": "Monday", "hour": 22}, {"datetime": "1981-05-07T09:00:00", "city": "santiago (chile)", "state": null, "country": null, "shape": "Light", "duration_in_seconds": 120.0, "duration_in_hours_min": "02 minutos", "comments": "el unico objeto era un punto de luz blanco en una noche despejada del tama&ntilde;o de una estrella grande&#44 luego de estar suspendida por un c", "dateposted": "4/9/2004", "latitude": -33.46912, "longitude": -70.641997, "year": 1981, "month": 5, "weekday": "Thursday", "hour": 9}, {"datetime": "2000-10-26T03:30:00", "city": "scottsdale", "state": "az", "country": "us", "shape": "Changing", "duration_in_seconds": 300.0, "duration_in_hours_min": "3-5 minutes", "comments": "I always suspected people who saw things are totally crazy. I&#39m an author and thank God sain and not on drugs. I couldn&#39t sleep last ni", "dateposted": "12/2/2000", "latitude": 33.5091667, "longitude": -111.8983333, "year": 2000, "month": 10, "weekday": "Thursday", "hour": 3}, {"datetime": "2001-05-17T21:45:00", "city": "ames", "state": "ia", "country": "us", "shape": "Triangle", "duration_in_seconds": 240.0, "duration_in_hours_min": "3-4 minutes", "comments": "Large triangular craft travels slowly at low altitude over Ames&#44 IA", "dateposted": "8/5/2001", "latitude": 42.0347222, "longitude": -93.6197222, "year": 2001, "month": 5, "weekday": "Thursday", "hour": 21}, {"datetime": "2011-09-09T08:30:00", "city": "arley", "state": "al", "country": "us", "shape": "Sphere", "duration_in_seconds": 15.0, "duration_in_hours_min": "10-15 seconds", "comments": "Glinting metallic object moving at a rapid speed", "dateposted": "12/17/2011", "latitude": 34.0788889, "longitude": -87.2122222, "year": 2011, "month": 9, "weekday": "Friday", "hour": 8}, {"datetime": "2008-11-30T02:00:00", "city": "oneonta", "state": "ny", "country": "us", "shape": "Unknown", "duration_in_seconds": 3600.0, "duration_in_hours_min": "1 hour", "comments": "Flashing lights were visable.", "dateposted": "1/10/2009", "latitude": 42.4527778, "longitude": -75.0641667, "year": 2008, "month": 11, "weekday": "Sunday", "hour": 2}, {"datetime": "2009-01-01T00:25:00", "city": "puerto escondido (mexico)", "state": null, "country": null, "shape": "Sphere", "duration_in_seconds": 2100.0, "duration_in_hours_min": "30-35 minutes", "comments": "Multiple Orange &amp; Red Spheres Over Southern Mexico", "dateposted": "4/14/2009", "latitude": 15.865535, "longitude": -97.069447, "year": 2009, "month": 1, "weekday": "Thursday", "hour": 0}, {"datetime": "2014-03-23T21:38:00", "city": "darfield (new zealand)", "state": null, "country": null, "shape": "Egg", "duration_in_seconds": 80.0, "duration_in_hours_min": "80 seconds", "comments": "2 large reddish orange balls of light moving across the Canterbury Plains.", "dateposted": "3/27/2014", "latitude": -43.489806, "longitude": 172.111467, "year": 2014, "month": 3, "weekday": "Sunday", "hour": 21}, {"datetime": "2013-11-05T06:20:00", "city": "lahaina", "state": "hi", "country": "us", "shape": "Flash", "duration_in_seconds": 3.0, "duration_in_hours_min": "3 seconds", "comments": "Saw a bright flash fall from the sky straight down to the ocean.  Witnessed on Maui but object could have been over Oahu.", "dateposted": "11/11/2013", "latitude": 20.8783333, "longitude": -156.6825, "year": 2013, "month": 11, "weekday": "Tuesday", "hour": 6}, {"datetime": "2007-07-15T16:00:00", "city": "ann arbor", "state": "mi", "country": "us", "shape": "Unknown", "duration_in_seconds": 10.0, "duration_in_hours_min": "10 seconds", "comments": "I was looking at some clouds through my binoculars directly over my house and just happen to see something quick move in a straight lin", "dateposted": "8/7/2007", "latitude": 42.2708333, "longitude": -83.7263889, "year": 2007, "month": 7, "weekday": "Sunday", "hour": 16}, {"datetime": "2012-04-29T21:02:00", "city": "hopkinton", "state": "ma", "country": "us", "shape": "Sphere", "duration_in_seconds": 1800.0, "duration_in_hours_min": "two and half hours", "comments": "Spherical objects were observed moving slightly and had changed position multiple times over the course of a few hours.", "dateposted": "5/13/2012", "latitude": 42.2286111, "longitude": -71.5230556, "year": 2012, "month": 4, "weekday": "Sunday", "hour": 21}, {"datetime": "1995-02-15T07:30:00", "city": "vaiden", "state": "ms", "country": "us", "shape": "Cigar", "duration_in_seconds": 300.0, "duration_in_hours_min": "5 minutes", "comments": "Saw cigar shaped object in Carroll county mississippi", "dateposted": "10/30/2006", "latitude": 33.3319444, "longitude": -89.7411111, "year": 1995, "month": 2, "weekday": "Wednesday", "hour": 7}, {"datetime": "2005-04-22T08:00:00", "city": "miami beach", "state": "fl", "country": "us", "shape": "Rectangle", "duration_in_seconds": 60.0, "duration_in_hours_min": "1 minute", "comments": "I saw 4 spheres circleing in a very tight formation and 2 rectangle UFO&#39s very high above them stationary.", "dateposted": "10/11/2005", "latitude": 25.7902778, "longitude": -80.1302778, "year": 2005, "month": 4, "weekday": "Friday", "hour": 8}, {"datetime": "2012-08-18T21:45:00", "city": "holly springs", "state": "nc", "country": "us", "shape": "Fireball", "duration_in_seconds": 3600.0, "duration_in_hours_min": "1 hour", "comments": "12 bright orange orbs moving across sky below clouds 1 min apart same exact path&#44 then reduce color brightness&#44 slow down accross sky.", "dateposted": "8/19/2012", "latitude": 35.6511111, "longitude": -78.8338889, "year": 2012, "month": 8, "weekday": "Saturday", "hour": 21}, {"datetime": "2008-05-22T21:40:00", "city": "tranquility", "state": "nj", "country": "us", "shape": "Other", "duration_in_seconds": 180.0, "duration_in_hours_min": "3min", "comments": "plasma  bright light traveling north at aslow rate of speed&#44 very weird indeed.", "dateposted": "6/12/2008", "latitude": 40.9561111, "longitude": -74.8088889, "year": 2008, "month": 5, "weekday": "Thursday", "hour": 21}, {"datetime": "2008-04-16T10:37:00", "city": "westfield", "state": "in", "country": "us", "shape": "Cigar", "duration_in_seconds": 180.0, "duration_in_hours_min": "3 minutes", "comments": "A huge Object with about 22 lights rotating counter clock wise moving&#44 hovering&#44 and then vanishing North of Hamilton County Indiana&#33&#33&#33", "dateposted": "6/12/2008", "latitude": 40.0427778, "longitude": -86.1275, "year": 2008, "month": 4, "weekday": "Wednesday", "hour": 10}, {"datetime": "2007-05-11T20:35:00", "city": "santa barbara", "state": "ca", "country": "us", "shape": "Other", "duration_in_seconds": 180.0, "duration_in_hours_min": "3 min", "comments": "Slowly moving crescent shaped object seen for 3+ minutes then disappearing.  ((NUFORC Note:  Student report.  PD))", "dateposted": "6/12/2007", "latitude": 34.4208333, "longitude": -119.6972222, "year": 2007, "month": 5, "weekday": "Friday", "hour": 20}, {"datetime": "1999-08-15T22:22:00", "city": "sedona", "state": "az", "country": "us", "shape": "Flash", "duration_in_seconds": 2.0, "duration_in_hours_min": "seconds", "comments": "standing out side on my porch watching the sky and the nite turn to day light flashed all at once it last a half a second", "dateposted": "8/30/1999", "latitude": 34.8697222, "longitude": -111.7602778, "year": 1999, "month": 8, "weekday": "Sunday", "hour": 22}, {"datetime": "1997-07-04T20:00:00", "city": "knob lick", "state": "mo", "country": "us", "shape": "Light", "duration_in_seconds": 3.0, "duration_in_hours_min": "3 seconds", "comments": "I was sitting at the closing campfire at S-F scout ranch. about mid way through my self and everyone else there saw a brillient blue li", "dateposted": "9/26/1998", "latitude": 37.6752778, "longitude": -90.3672222, "year": 1997, "month": 7, "weekday": "Friday", "hour": 20}, {"datetime": "2012-08-18T23:40:00", "city": "columbus", "state": "oh", "country": "us", "shape": "Sphere", "duration_in_seconds": 15.0, "duration_in_hours_min": "10-15 seconds", "comments": "Orange shimmering object moving across night sky", "dateposted": "8/19/2012", "latitude": 39.9611111, "longitude": -82.9988889, "year": 2012, "month": 8, "weekday": "Saturday", "hour": 23}, {"datetime": "2001-01-10T18:20:00", "city": "eagle rock", "state": "ca", "country": "us", "shape": "Cigar", "duration_in_seconds": 240.0, "duration_in_hours_min": "2-4 minutes", "comments": "1/10/01 6:20 PM. Saw a large elongated tube cigar like object. Dark outside. Several long stream blinking lights. I was bewildered", "dateposted": "2/18/2001", "latitude": 34.1388889, "longitude": -118.2130556, "year": 2001, "month": 1, "weekday": "Wednesday", "hour": 18}, {"datetime": "2007-01-01T18:08:00", "city": "eagle pass", "state": "tx", "country": "us", "shape": "Circle", "duration_in_seconds": 900.0, "duration_in_hours_min": "15 minutes", "comments": "Dark circular object seen over a deserted ranch outside of Eagle Pass&#44 Tx.  later we see a smaller object as well.", "dateposted": "11/28/2007", "latitude": 28.7088889, "longitude": -100.4991667, "year": 2007, "month": 1, "weekday": "Monday", "hour": 18}, {"datetime": "1994-05-15T22:00:00", "city": "saskatoon (canada)", "state": "sk", "country": "ca", "shape": "Light", "duration_in_seconds": 7200.0, "duration_in_hours_min": "2 hours", "comments": "streams of light and triangular lights seen over Saskatoon&#44 SK.", "dateposted": "10/31/2003", "latitude": 52.133333, "longitude": -106.666667, "year": 1994, "month": 5, "weekday": "Sunday", "hour": 22}, {"datetime": "1997-03-13T20:00:00", "city": "phoenix", "state": "az", "country": "us", "shape": "Chevron", "duration_in_seconds": 600.0, "duration_in_hours_min": "10 minutes", "comments": "&quot;V&quot; shaped black object with 5 lights&#44 passed directlyover our house in Phoenix and didn&#39t make a sound. It&#39s shapewas that of a carpen", "dateposted": "3/7/1998", "latitude": 33.4483333, "longitude": -112.0733333, "year": 1997, "month": 3, "weekday": "Thursday", "hour": 20}, {"datetime": "2013-09-23T17:30:00", "city": "denver", "state": "co", "country": "us", "shape": "Triangle", "duration_in_seconds": 180.0, "duration_in_hours_min": "3 minutes", "comments": "Triangular shaped object with a large round light on what appears to be the bottom.", "dateposted": "9/30/2013", "latitude": 39.7391667, "longitude": -104.9841667, "year": 2013, "month": 9, "weekday": "Monday", "hour": 17}, {"datetime": "2005-06-21T19:15:00", "city": "santa monica", "state": "ca", "country": "us", "shape": "Cylinder", "duration_in_seconds": 7200.0, "duration_in_hours_min": "2hours30min.", "comments": "STAR. AT 10 O CLOCK POSTION. LOOKING WEST TOWARD SANTA MONICA BAY JUST OVER SANTA MONICA MOUNTAINS. THE ONLY STAR WITH A SOFT LIGHT.CYL", "dateposted": "7/5/2005", "latitude": 34.0194444, "longitude": -118.4902778, "year": 2005, "month": 6, "weekday": "Tuesday", "hour": 19}, {"datetime": "1990-08-26T23:00:00", "city": "punxsutawney", "state": "pa", "country": "us", "shape": "Sphere", "duration_in_seconds": 900.0, "duration_in_hours_min": "15 minutes", "comments": "7 or 8 rows of red lights", "dateposted": "12/19/2003", "latitude": 40.9436111, "longitude": -78.9711111, "year": 1990, "month": 8, "weekday": "Sunday", "hour": 23}, {"datetime": "2012-11-26T23:30:00", "city": "chantilly", "state": "va", "country": "us", "shape": "Other", "duration_in_seconds": 600.0, "duration_in_hours_min": "10 minutes", "comments": "Four white lights NE swirling and meeting above my location.", "dateposted": "12/20/2012", "latitude": 38.8941667, "longitude": -77.4313889, "year": 2012, "month": 11, "weekday": "Monday", "hour": 23}, {"datetime": "2006-01-04T05:40:00", "city": "orange park", "state": "fl", "country": "us", "shape": "Oval", "duration_in_seconds": 2.0, "duration_in_hours_min": "seconds", "comments": "Look like a bright star flying very fast with no trail behind it.", "dateposted": "2/14/2006", "latitude": 30.1658333, "longitude": -81.7066667, "year": 2006, "month": 1, "weekday": "Wednesday", "hour": 5}, {"datetime": "2013-09-25T21:00:00", "city": "newport beach", "state": "ca", "country": "us", "shape": "Triangle", "duration_in_seconds": 180.0, "duration_in_hours_min": "3 minutes", "comments": "Hovering black triangle with different colored lights- dropped vertically within 3-5 seconds.", "dateposted": "10/14/2013", "latitude": 33.6188889, "longitude": -117.9280556, "year": 2013, "month": 9, "weekday": "Wednesday", "hour": 21}, {"datetime": "2013-03-25T21:45:00", "city": "bhuj (india)", "state": null, "country": null, "shape": "Fireball", "duration_in_seconds": 4.0, "duration_in_hours_min": "4 seconds", "comments": "The Reddish Orange Light seen from various places in radius of 60 km the object was moving slowly from west to north", "dateposted": "5/15/2013", "latitude": 23.242, "longitude": 69.666932, "year": 2013, "month": 3, "weekday": "Monday", "hour": 21}, {"datetime": "1997-06-21T00:15:00", "city": "london (chingford hatch) (uk/england)", "state": null, "country": "gb", "shape": "Light", "duration_in_seconds": 4200.0, "duration_in_hours_min": "1hr 10mins", "comments": "On leaving a restaurant awiating a Taxis&#44 We looked at the sky.It was a Full Moon that night&#44 We saw several spherical lights some of w", "dateposted": "9/19/2002", "latitude": 51.514125, "longitude": -0.093689, "year": 1997, "month": 6, "weekday": "Saturday", "hour": 0}, {"datetime": "2004-12-25T22:25:00", "city": "gloucester", "state": "ma", "country": "us", "shape": "Changing", "duration_in_seconds": 300.0, "duration_in_hours_min": "5 minutes", "comments": "2 triangles split apart to many stars and hovered near Orion.", "dateposted": "1/11/2005", "latitude": 42.6158333, "longitude": -70.6625, "year": 2004, "month": 12, "weekday": "Saturday", "hour": 22}, {"datetime": "2001-08-21T00:01:00", "city": "seattle", "state": "wa", "country": "us", "shape": "Other", "duration_in_seconds": 300.0, "duration_in_hours_min": "4-5 minutes", "comments": "Dark Low Flying Plane-Like Object on Flight Path to Seatac Airport", "dateposted": "10/12/2001", "latitude": 47.6063889, "longitude": -122.3308333, "year": 2001, "month": 8, "weekday": "Tuesday", "hour": 0}, {"datetime": "2002-10-03T06:00:00", "city": "augusta", "state": "ga", "country": "us", "shape": "Light", "duration_in_seconds": 30.0, "duration_in_hours_min": ">30 seconds", "comments": "High altitude bright strobing light moving at a very high rate of speed.", "dateposted": "10/15/2002", "latitude": 33.4708333, "longitude": -81.975, "year": 2002, "month": 10, "weekday": "Thursday", "hour": 6}, {"datetime": "1975-10-15T03:30:00", "city": "polland junction", "state": "az", "country": null, "shape": "Circle", "duration_in_seconds": 1800.0, "duration_in_hours_min": "30 min", "comments": "4  of us saw the object while living near Prescott Arizona", "dateposted": "6/21/2000", "latitude": 34.451249, "longitude": -112.267407, "year": 1975, "month": 10, "weekday": "Wednesday", "hour": 3}, {"datetime": "2007-07-28T14:30:00", "city": "hooper", "state": "co", "country": "us", "shape": "Disk", "duration_in_seconds": 300.0, "duration_in_hours_min": "3 to 5 min.", "comments": "Many watch as two UFO&#8217;s merge then separate", "dateposted": "8/7/2007", "latitude": 37.7427778, "longitude": -105.8747222, "year": 2007, "month": 7, "weekday": "Saturday", "hour": 14}, {"datetime": "2005-03-21T09:30:00", "city": "castro valley", "state": "ca", "country": "us", "shape": "Egg", "duration_in_seconds": 120.0, "duration_in_hours_min": "2 minutes", "comments": "Shiny white object flys silently over our home", "dateposted": "4/16/2005", "latitude": 37.6941667, "longitude": -122.0852778, "year": 2005, "month": 3, "weekday": "Monday", "hour": 9}, {"datetime": "2000-06-05T23:30:00", "city": "san francisco", "state": "ca", "country": "us", "shape": "Unknown", "duration_in_seconds": 60.0, "duration_in_hours_min": "1 minute", "comments": "star like stop and go satellite", "dateposted": "6/21/2000", "latitude": 37.775, "longitude": -122.4183333, "year": 2000, "month": 6, "weekday": "Monday", "hour": 23}, {"datetime": "2009-07-15T21:00:00", "city": "charlotte", "state": "nc", "country": "us", "shape": "Circle", "duration_in_seconds": 60.0, "duration_in_hours_min": "60 seconds", "comments": "Strange balls of light in the sky", "dateposted": "12/12/2011", "latitude": 35.2269444, "longitude": -80.8433333, "year": 2009, "month": 7, "weekday": "Wednesday", "hour": 21}, {"datetime": "2007-01-20T08:31:00", "city": "kannapolis", "state": "nc", "country": "us", "shape": "Rectangle", "duration_in_seconds": 300.0, "duration_in_hours_min": "5min", "comments": "UFOs that have humans coming out of them&#33&#33&#33&#33", "dateposted": "2/1/2007", "latitude": 35.4872222, "longitude": -80.6219444, "year": 2007, "month": 1, "weekday": "Saturday", "hour": 8}, {"datetime": "2002-06-30T16:00:00", "city": "donegal county (republic of ireland)", "state": null, "country": null, "shape": "Sphere", "duration_in_seconds": 60.0, "duration_in_hours_min": "1 minute", "comments": "I was standing outside our hoilday home looking towards the sea i looked at the sky when isaw 2ball shaped objects sliver in color allm", "dateposted": "10/30/2006", "latitude": 54.654197, "longitude": -8.110546, "year": 2002, "month": 6, "weekday": "Sunday", "hour": 16}, {"datetime": "2002-09-04T23:59:00", "city": "fort wayne", "state": "in", "country": "us", "shape": "Other", "duration_in_seconds": 600.0, "duration_in_hours_min": "10 minutes", "comments": "A very strange light observant at midnight.", "dateposted": "9/6/2002", "latitude": 41.1305556, "longitude": -85.1288889, "year": 2002, "month": 9, "weekday": "Wednesday", "hour": 23}, {"datetime": "1947-06-20T12:00:00", "city": "hayward", "state": "ca", "country": "us", "shape": "Circle", "duration_in_seconds": 1800.0, "duration_in_hours_min": "30 minutes", "comments": "We where very close to five bright gold saucers for approx. twenty minutes.", "dateposted": "9/9/2013", "latitude": 37.6688889, "longitude": -122.0797222, "year": 1947, "month": 6, "weekday": "Friday", "hour": 12}, {"datetime": "2010-06-21T16:45:00", "city": "carlsbad", "state": "ca", "country": "us", "shape": "Other", "duration_in_seconds": 600.0, "duration_in_hours_min": "approx.  10 min", "comments": "Saw 2 chem-trails  flying over SD Co. going 2 different directions for approx 7-10 mins before...disappearing&#33&#33&#33", "dateposted": "6/23/2010", "latitude": 33.1580556, "longitude": -117.3497222, "year": 2010, "month": 6, "weekday": "Monday", "hour": 16}, {"datetime": "1957-06-01T22:00:00", "city": "irving", "state": "tx", "country": "us", "shape": "Light", "duration_in_seconds": 300.0, "duration_in_hours_min": "5minutes", "comments": "tryangle over tx", "dateposted": "1/21/2008", "latitude": 32.8138889, "longitude": -96.9486111, "year": 1957, "month": 6, "weekday": "Saturday", "hour": 22}, {"datetime": "2009-06-24T00:15:00", "city": "minden", "state": "la", "country": "us", "shape": "Unknown", "duration_in_seconds": 1200.0, "duration_in_hours_min": "watched for 20 min.", "comments": "lights seen in eastern sky in Minden&#44 La.&#44 at conference centre at Caney Lake&#33&#33&#33&#33&#33", "dateposted": "8/5/2009", "latitude": 32.6152778, "longitude": -93.2866667, "year": 2009, "month": 6, "weekday": "Wednesday", "hour": 0}, {"datetime": "2014-02-14T21:19:00", "city": "ridgecrest", "state": "ca", "country": "us", "shape": "Unknown", "duration_in_seconds": 180.0, "duration_in_hours_min": "3 minutes", "comments": "Silent Blue Light.", "dateposted": "2/21/2014", "latitude": 35.6225, "longitude": -117.67, "year": 2014, "month": 2, "weekday": "Friday", "hour": 21}, {"datetime": "2010-09-22T21:00:00", "city": "santa monica", "state": "ca", "country": "us", "shape": "Fireball", "duration_in_seconds": 120.0, "duration_in_hours_min": "2 minutes", "comments": "Two fireballs seen south of Santa Monica.", "dateposted": "11/21/2010", "latitude": 34.0194444, "longitude": -118.4902778, "year": 2010, "month": 9, "weekday": "Wednesday", "hour": 21}, {"datetime": "2013-08-06T21:10:00", "city": "clarkston", "state": "wa", "country": "us", "shape": "Light", "duration_in_seconds": 240.0, "duration_in_hours_min": "3-4 minutes", "comments": "Bright light appears and follows same course nightly for past several months", "dateposted": "8/30/2013", "latitude": 46.4163889, "longitude": -117.0441667, "year": 2013, "month": 8, "weekday": "Tuesday", "hour": 21}, {"datetime": "2011-09-27T12:45:00", "city": "st. simons island", "state": "ga", "country": "us", "shape": "Sphere", "duration_in_seconds": 7200.0, "duration_in_hours_min": "2 hrs?", "comments": "Object appeared as a rounded bright light&#44 stopping then moving rapidly (erratically) in any direction.  ((NUFORC Note:  Star??  PD))", "dateposted": "10/10/2011", "latitude": 31.1502778, "longitude": -81.3697222, "year": 2011, "month": 9, "weekday": "Tuesday", "hour": 12}, {"datetime": "1971-06-10T15:50:00", "city": "spokane", "state": "wa", "country": "us", "shape": "Disk", "duration_in_seconds": 300.0, "duration_in_hours_min": "5 minutes", "comments": "Sighting of a large metal flying object.  The object was metal&#44 flat-bottomed&#44 with a sloped dome in the center.  An Air Force jet was", "dateposted": "1/28/1999", "latitude": 47.6588889, "longitude": -117.425, "year": 1971, "month": 6, "weekday": "Thursday", "hour": 15}, {"datetime": "2012-03-20T22:00:00", "city": "wisconsin rapids", "state": "wi", "country": "us", "shape": "Light", "duration_in_seconds": 30.0, "duration_in_hours_min": "30 seconds", "comments": "Strange orange lights over Wisconsin Rapids.", "dateposted": "5/13/2012", "latitude": 44.3836111, "longitude": -89.8172222, "year": 2012, "month": 3, "weekday": "Tuesday", "hour": 22}, {"datetime": "2005-06-13T03:45:00", "city": "crestline", "state": "ca", "country": "us", "shape": "Circle", "duration_in_seconds": 10.0, "duration_in_hours_min": "10 seconds", "comments": "Early mourning sighting", "dateposted": "6/20/2005", "latitude": 34.2419444, "longitude": -117.2847222, "year": 2005, "month": 6, "weekday": "Monday", "hour": 3}, {"datetime": "2013-06-15T22:00:00", "city": "innisfail (canada)", "state": "ab", "country": "ca", "shape": "Light", "duration_in_seconds": 240.0, "duration_in_hours_min": "4 min", "comments": "Two bright objects starting as what looked like one stationary dim round light. It started to move across the sky and then a second one", "dateposted": "9/9/2013", "latitude": 52.033333, "longitude": -113.95, "year": 2013, "month": 6, "weekday": "Saturday", "hour": 22}, {"datetime": "1979-10-24T17:00:00", "city": "arcadia", "state": "la", "country": "us", "shape": "Disk", "duration_in_seconds": 45.0, "duration_in_hours_min": "45 seconds", "comments": "object moved from one point to another so fast that it looked liked there were two of them", "dateposted": "9/9/2003", "latitude": 32.5488889, "longitude": -92.92, "year": 1979, "month": 10, "weekday": "Wednesday", "hour": 17}, {"datetime": "2005-02-28T22:15:00", "city": "sevierville", "state": "tn", "country": "us", "shape": "Triangle", "duration_in_seconds": 300.0, "duration_in_hours_min": "1-5 minutes", "comments": "Three lights in triangle shape hoover over houses&#44 makes no sounds and flees as we begin to investigate", "dateposted": "4/16/2005", "latitude": 35.8680556, "longitude": -83.5619444, "year": 2005, "month": 2, "weekday": "Monday", "hour": 22}, {"datetime": "2006-10-25T20:53:00", "city": "cooper city", "state": "fl", "country": "us", "shape": "Changing", "duration_in_seconds": 120.0, "duration_in_hours_min": "2 minutes", "comments": "object with plume of light changed altitude and direction", "dateposted": "10/30/2006", "latitude": 26.0569444, "longitude": -80.2719444, "year": 2006, "month": 10, "weekday": "Wednesday", "hour": 20}, {"datetime": "1999-07-19T02:05:00", "city": "lincoln", "state": "ne", "country": "us", "shape": "Unknown", "duration_in_seconds": 4.0, "duration_in_hours_min": "3-4 seconds", "comments": "an unseen object passed overhead from in back and then to the front of me&#44 it cpa&#39d my location to my right side and was approx 20 - 25", "dateposted": "8/10/1999", "latitude": 40.8, "longitude": -96.6666667, "year": 1999, "month": 7, "weekday": "Monday", "hour": 2}, {"datetime": "2012-07-19T09:50:00", "city": "seaside", "state": "or", "country": "us", "shape": "Sphere", "duration_in_seconds": 120.0, "duration_in_hours_min": "2 minutes", "comments": "5 women observed an orange sphere rising in altitude and moving NE with emanating light lasting 2 to 3 minutes.", "dateposted": "8/5/2012", "latitude": 45.9933333, "longitude": -123.9213889, "year": 2012, "month": 7, "weekday": "Thursday", "hour": 9}, {"datetime": "2013-01-31T19:45:00", "city": "albuquerque", "state": "nm", "country": "us", "shape": "Light", "duration_in_seconds": 180.0, "duration_in_hours_min": "1-3 minutes", "comments": "Unexplainable steady light moves horizontally then disappears.", "dateposted": "2/4/2013", "latitude": 35.0844444, "longitude": -106.6505556, "year": 2013, "month": 1, "weekday": "Thursday", "hour": 19}, {"datetime": "2011-03-18T19:40:00", "city": "litchfield park", "state": "az", "country": "us", "shape": "Circle", "duration_in_seconds": 180.0, "duration_in_hours_min": "3 minutes", "comments": "4 orange orbs hovering over Litchfield Park&#44 AZ", "dateposted": "3/23/2011", "latitude": 33.4933333, "longitude": -112.3572222, "year": 2011, "month": 3, "weekday": "Friday", "hour": 19}, {"datetime": "2006-09-10T21:00:00", "city": "bristol (uk/england)", "state": null, "country": "gb", "shape": "Oval", "duration_in_seconds": 5.0, "duration_in_hours_min": "3-5 seconds", "comments": "we were led on our backs looking out for&quot;shooting stars&quot; it appearded out of no where and had a orange brown colour to it it moved very", "dateposted": "10/30/2006", "latitude": 51.45, "longitude": -2.583333, "year": 2006, "month": 9, "weekday": "Sunday", "hour": 21}, {"datetime": "2007-11-14T17:34:00", "city": "san diego", "state": "ca", "country": "us", "shape": "Circle", "duration_in_seconds": 600.0, "duration_in_hours_min": "10 minutes", "comments": "Bright orange ascending then hovering light with smaller red flashing lights in center", "dateposted": "11/28/2007", "latitude": 32.7152778, "longitude": -117.1563889, "year": 2007, "month": 11, "weekday": "Wednesday", "hour": 17}, {"datetime": "2012-03-27T05:05:00", "city": "newburgh", "state": "ny", "country": "us", "shape": "Other", "duration_in_seconds": 1200.0, "duration_in_hours_min": "20 minutes", "comments": "Two bright clouds fall from sky over Newburgh&#44NY.", "dateposted": "5/13/2012", "latitude": 41.5033333, "longitude": -74.0108333, "year": 2012, "month": 3, "weekday": "Tuesday", "hour": 5}, {"datetime": "2006-07-26T22:30:00", "city": "mckinney", "state": "tx", "country": "us", "shape": "Unknown", "duration_in_seconds": 60.0, "duration_in_hours_min": "1 minute", "comments": "Bright light near Dallas.", "dateposted": "10/30/2006", "latitude": 33.1975, "longitude": -96.615, "year": 2006, "month": 7, "weekday": "Wednesday", "hour": 22}, {"datetime": "1998-09-18T01:45:00", "city": "cozad", "state": "ne", "country": "us", "shape": "Changing", "duration_in_seconds": 30.0, "duration_in_hours_min": "30 seconds", "comments": "I witnessed a distortion of the star field from the right to the left. North to south.", "dateposted": "9/26/1998", "latitude": 40.8597222, "longitude": -99.9869444, "year": 1998, "month": 9, "weekday": "Friday", "hour": 1}, {"datetime": "1999-11-16T19:00:00", "city": "louisville", "state": "ky", "country": "us", "shape": "Light", "duration_in_seconds": 7.0, "duration_in_hours_min": "7 seconds", "comments": "Very bright white light&#44 moving at approx. mach 2 or 3&#44 in a northerly to north easterly direction&#44 along a perfectly straight line&#44 ap", "dateposted": "1/7/2000", "latitude": 38.2541667, "longitude": -85.7594444, "year": 1999, "month": 11, "weekday": "Tuesday", "hour": 19}, {"datetime": "2009-11-02T18:00:00", "city": "bainbridge island", "state": "wa", "country": null, "shape": "Flash", "duration_in_seconds": 1.0, "duration_in_hours_min": "1 second", "comments": "Flash of light followed by change in broadcast signals&#44 and then unmarked black helicopter with searchlight.", "dateposted": "12/12/2009", "latitude": 47.626208, "longitude": -122.521245, "year": 2009, "month": 11, "weekday": "Monday", "hour": 18}, {"datetime": "2009-12-24T21:05:00", "city": "greenock (uk/scotland)", "state": null, "country": "gb", "shape": "Light", "duration_in_seconds": 60.0, "duration_in_hours_min": "1 min", "comments": "Greenock&#44 Scotland&#44 Brigh light &#441 min&#44 the bright light moved light a plane but had no sound and was not that high in the sky.", "dateposted": "2/14/2010", "latitude": 55.933333, "longitude": -4.75, "year": 2009, "month": 12, "weekday": "Thursday", "hour": 21}, {"datetime": "2007-05-15T23:40:00", "city": "southington", "state": "ct", "country": "us", "shape": "Fireball", "duration_in_seconds": 15.0, "duration_in_hours_min": "< 15 seconds", "comments": "A fireball-like object twice the size of a star appeared and moved north with great speed&#44 followed by a flash of light.", "dateposted": "6/12/2007", "latitude": 41.5963889, "longitude": -72.8780556, "year": 2007, "month": 5, "weekday": "Tuesday", "hour": 23}, {"datetime": "2011-11-15T17:43:00", "city": "brentwood", "state": "nh", "country": "us", "shape": "Circle", "duration_in_seconds": 1200.0, "duration_in_hours_min": "20 min.", "comments": "circular flying object.", "dateposted": "12/12/2011", "latitude": 42.9786111, "longitude": -71.0733333, "year": 2011, "month": 11, "weekday": "Tuesday", "hour": 17}, {"datetime": "2003-09-10T23:30:00", "city": "kenai", "state": "ak", "country": "us", "shape": "Flash", "duration_in_seconds": 30.0, "duration_in_hours_min": "30 sec", "comments": "A Light In The Sky", "dateposted": "9/12/2003", "latitude": 60.5544444, "longitude": -151.2583333, "year": 2003, "month": 9, "weekday": "Wednesday", "hour": 23}, {"datetime": "2009-01-01T00:05:00", "city": "cardiff (uk/wales)", "state": null, "country": "gb", "shape": "Light", "duration_in_seconds": 45.0, "duration_in_hours_min": "30-45 seconds", "comments": "Three unidentified orange objects over Cardiff&#44 New Years Day 2009", "dateposted": "3/19/2009", "latitude": 51.5, "longitude": -3.2, "year": 2009, "month": 1, "weekday": "Thursday", "hour": 0}, {"datetime": "1978-10-12T21:00:00", "city": "dyersburg", "state": "tn", "country": "us", "shape": "Triangle", "duration_in_seconds": 7200.0, "duration_in_hours_min": "2 hours", "comments": "NW TN TRIANGLE.", "dateposted": "9/9/2013", "latitude": 36.0344444, "longitude": -89.3855556, "year": 1978, "month": 10, "weekday": "Thursday", "hour": 21}, {"datetime": "2005-11-15T23:43:00", "city": "colby", "state": "ks", "country": "us", "shape": "Light", "duration_in_seconds": 420.0, "duration_in_hours_min": "7 minutes", "comments": "Light in NW Kansas sky&#44 Military Aircraft scrambled", "dateposted": "12/16/2005", "latitude": 39.3958333, "longitude": -101.0519444, "year": 2005, "month": 11, "weekday": "Tuesday", "hour": 23}, {"datetime": "2007-12-10T19:00:00", "city": "virginia beach", "state": "va", "country": "us", "shape": "Fireball", "duration_in_seconds": 300.0, "duration_in_hours_min": "5 minutes", "comments": "Brilliant orange light seemed to be emitting from something above as if it were propulsion.", "dateposted": "3/4/2008", "latitude": 36.8527778, "longitude": -75.9783333, "year": 2007, "month": 12, "weekday": "Monday", "hour": 19}, {"datetime": "1999-05-09T23:00:00", "city": "east liverpool", "state": "oh", "country": "us", "shape": "Disk", "duration_in_seconds": 120.0, "duration_in_hours_min": "minute", "comments": "it was on mother&#39s day of 1999&#44 on my way home from my mother&#39s house.  i was on route 11&#44 the exit before beaver creek state park.  on", "dateposted": "12/2/2000", "latitude": 40.6186111, "longitude": -80.5775, "year": 1999, "month": 5, "weekday": "Sunday", "hour": 23}, {"datetime": "2002-05-05T16:00:00", "city": "core", "state": "wv", "country": "us", "shape": "Unknown", "duration_in_seconds": 600.0, "duration_in_hours_min": "10 min", "comments": "Has anyone had this happen?", "dateposted": "5/14/2002", "latitude": 39.68, "longitude": -80.1075, "year": 2002, "month": 5, "weekday": "Sunday", "hour": 16}, {"datetime": "2012-07-28T22:00:00", "city": "massapequa park", "state": "ny", "country": "us", "shape": "Sphere", "duration_in_seconds": 900.0, "duration_in_hours_min": "15 minutes", "comments": "Flying orbs over the night sky in New York on July 28&#44 2012.", "dateposted": "8/5/2012", "latitude": 40.6802778, "longitude": -73.4555556, "year": 2012, "month": 7, "weekday": "Saturday", "hour": 22}, {"datetime": "2010-09-08T23:00:00", "city": "maricopa", "state": "az", "country": "us", "shape": "Oval", "duration_in_seconds": 1200.0, "duration_in_hours_min": "20 mins", "comments": "orangest white lights in a slow moving circular pattern seem over Maricopa&#44 Az.", "dateposted": "11/21/2010", "latitude": 33.0580556, "longitude": -112.0469444, "year": 2010, "month": 9, "weekday": "Wednesday", "hour": 23}, {"datetime": "2001-10-11T01:00:00", "city": "somerset", "state": "wi", "country": "us", "shape": "Light", "duration_in_seconds": 10800.0, "duration_in_hours_min": "3 hours+", "comments": "My brother and I went outside to have a smoke and then noticed a moving&#44 multicolored light in the sky....", "dateposted": "11/20/2001", "latitude": 45.1244444, "longitude": -92.6733333, "year": 2001, "month": 10, "weekday": "Thursday", "hour": 1}, {"datetime": "2013-12-14T21:45:00", "city": "miami", "state": "fl", "country": "us", "shape": "Light", "duration_in_seconds": 300.0, "duration_in_hours_min": "5 minutes", "comments": "Flashing light over Miami.", "dateposted": "12/23/2013", "latitude": 25.7738889, "longitude": -80.1938889, "year": 2013, "month": 12, "weekday": "Saturday", "hour": 21}, {"datetime": "1998-08-31T22:00:00", "city": "tucson", "state": "az", "country": "us", "shape": "Unknown", "duration_in_seconds": 60.0, "duration_in_hours_min": "60 seconds", "comments": "Pair of objects flying side by side.", "dateposted": "11/1/1998", "latitude": 32.2216667, "longitude": -110.9258333, "year": 1998, "month": 8, "weekday": "Monday", "hour": 22}, {"datetime": "2008-02-08T18:20:00", "city": "carlsbad", "state": "ca", "country": "us", "shape": "Other", "duration_in_seconds": 180.0, "duration_in_hours_min": "3 minutes", "comments": "02/08/2008    Carlsbad CA   String of lights  3 minutes  viewed over ocean shore&#44 red and blue lights&#44 assended turned white and disapp", "dateposted": "2/14/2008", "latitude": 33.1580556, "longitude": -117.3497222, "year": 2008, "month": 2, "weekday": "Friday", "hour": 18}, {"datetime": "2008-06-07T23:30:00", "city": "atlanta", "state": "ga", "country": "us", "shape": "Cigar", "duration_in_seconds": 50.0, "duration_in_hours_min": "<1m", "comments": "Around midnight&#44 two witnesses observed a bright light in the sky that&#44 upon observation&#44 appeared to be a large and wingless aircraft.", "dateposted": "6/12/2008", "latitude": 33.7488889, "longitude": -84.3880556, "year": 2008, "month": 6, "weekday": "Saturday", "hour": 23}, {"datetime": "2003-06-09T22:32:00", "city": "puyallup", "state": "wa", "country": "us", "shape": "Fireball", "duration_in_seconds": 60.0, "duration_in_hours_min": "30-60 seconds", "comments": "It gave of light like a search light but was red and falling from the sky with smoke behind it", "dateposted": "6/18/2003", "latitude": 47.1855556, "longitude": -122.2916667, "year": 2003, "month": 6, "weekday": "Monday", "hour": 22}, {"datetime": "2000-11-12T03:00:00", "city": "russell springs", "state": "ky", "country": "us", "shape": "Formation", "duration_in_seconds": 120.0, "duration_in_hours_min": "2 mins", "comments": "A tight formation of three crafts that zipped across the sky but stoped for a minute and then flew off again.", "dateposted": "2/22/2002", "latitude": 37.0561111, "longitude": -85.0886111, "year": 2000, "month": 11, "weekday": "Sunday", "hour": 3}, {"datetime": "2008-07-27T23:00:00", "city": "fayetteville", "state": "ga", "country": "us", "shape": "Unknown", "duration_in_seconds": 300.0, "duration_in_hours_min": "5 min.", "comments": "Star-like object(s) make unusual manuevers in the night sky.", "dateposted": "8/7/2011", "latitude": 33.4486111, "longitude": -84.455, "year": 2008, "month": 7, "weekday": "Sunday", "hour": 23}, {"datetime": "1984-11-11T23:00:00", "city": "edgartown", "state": "ma", "country": "us", "shape": "Triangle", "duration_in_seconds": 600.0, "duration_in_hours_min": "10 minutes", "comments": "My fiance and I&#44 both artist&#44 were getting married August 12&#44 1984 and spending our honeymoon on Martha&#39s Vineyard.  About 11:00 the ni", "dateposted": "5/15/2006", "latitude": 41.3888889, "longitude": -70.5138889, "year": 1984, "month": 11, "weekday": "Sunday", "hour": 23}, {"datetime": "2012-10-06T04:00:00", "city": "new york city (bronx)", "state": "ny", "country": "us", "shape": "Light", "duration_in_seconds": 5.0, "duration_in_hours_min": "5 seconds", "comments": "A moving solid light", "dateposted": "10/30/2012", "latitude": 40.7141667, "longitude": -74.0063889, "year": 2012, "month": 10, "weekday": "Saturday", "hour": 4}, {"datetime": "2012-03-25T21:26:00", "city": "attleboro", "state": "ma", "country": "us", "shape": "Triangle", "duration_in_seconds": 120.0, "duration_in_hours_min": "2 minutes", "comments": "3 red lights in triangular shape", "dateposted": "4/18/2012", "latitude": 41.9444444, "longitude": -71.2861111, "year": 2012, "month": 3, "weekday": "Sunday", "hour": 21}, {"datetime": "2008-07-17T22:00:00", "city": "st. louis", "state": "mo", "country": "us", "shape": "Sphere", "duration_in_seconds": 120.0, "duration_in_hours_min": "2 min", "comments": "UFO Seen Over Saint Louis Arch when on my vacation", "dateposted": "8/12/2008", "latitude": 38.6272222, "longitude": -90.1977778, "year": 2008, "month": 7, "weekday": "Thursday", "hour": 22}, {"datetime": "2009-07-19T23:15:00", "city": "margate", "state": "nj", "country": null, "shape": "Diamond", "duration_in_seconds": 600.0, "duration_in_hours_min": "10 minutes", "comments": "Diamond Shaped Object the size of a Football Field...brightly lit corners. Traveled from Sea Isle City to Margate &amp; off to sea.", "dateposted": "3/13/2012", "latitude": 39.347729, "longitude": -74.530451, "year": 2009, "month": 7, "weekday": "Sunday", "hour": 23}, {"datetime": "2010-06-18T23:00:00", "city": "batchewana bay (canada)", "state": "on", "country": null, "shape": "Circle", "duration_in_seconds": 300.0, "duration_in_hours_min": "1/2 hr", "comments": "Unknown object seen in sky.  ((NUFORC Note:  Venus??  PD))", "dateposted": "6/23/2010", "latitude": 46.927958, "longitude": -84.605911, "year": 2010, "month": 6, "weekday": "Friday", "hour": 23}, {"datetime": "2014-03-30T23:48:00", "city": "tinley park", "state": "il", "country": "us", "shape": "Light", "duration_in_seconds": 300.0, "duration_in_hours_min": "5 minutes", "comments": "First witnessed a tiny blinking light very high in the sky and thought it was a plane. Upon further examination the lights were blinkin", "dateposted": "4/4/2014", "latitude": 41.5733333, "longitude": -87.7844444, "year": 2014, "month": 3, "weekday": "Sunday", "hour": 23}, {"datetime": "2007-10-02T03:00:00", "city": "claremont", "state": "ca", "country": "us", "shape": "Circle", "duration_in_seconds": 7200.0, "duration_in_hours_min": "2 hours", "comments": "woke up at around 3am to use the bathroom when I noticed a bright light coming in my bedroom window.  ((NUFORC Note:  Venus.  PD))", "dateposted": "10/8/2007", "latitude": 34.0966667, "longitude": -117.7188889, "year": 2007, "month": 10, "weekday": "Tuesday", "hour": 3}, {"datetime": "2013-09-18T21:30:00", "city": "shelbyville", "state": "ky", "country": "us", "shape": "Cigar", "duration_in_seconds": 240.0, "duration_in_hours_min": "4 minutes", "comments": "Cigar shaped fireball ascending up diagonally then disappeared.", "dateposted": "9/30/2013", "latitude": 38.2119444, "longitude": -85.2236111, "year": 2013, "month": 9, "weekday": "Wednesday", "hour": 21},